city,lat,lng,country,iso2,admin_name,capital,population,population_proper,x,y,z
Sydney,-0.2971978649580141,0.6380490186149356,Australia,AU,New South Wales,admin,20.773757135760366,20.7390716814777,-0.2971978649580141,0.6380490186149356,20.773757135760366
Melbourne,-0.9537383814516708,-0.0217595709827298,Australia,AU,Victoria,admin,19.854597893316253,19.40011935221179,-0.9537383814516708,-0.0217595709827298,19.854597893316253
Brisbane,0.7664755869270141,0.8301617704682376,Australia,AU,Queensland,admin,9.781799799287594,10.063782512510592,0.7664755869270141,0.8301617704682376,9.781799799287594
Perth,0.0208466824636207,-3.0960917601776767,Australia,AU,Western Australia,admin,7.995495112621192,8.682044824500766,0.0208466824636207,-3.0960917601776767,7.995495112621192
Adelaide,-0.474094348647828,-0.6937897723852161,Australia,AU,South Australia,admin,5.191672462507674,5.482133826504638,-0.474094348647828,-0.6937897723852161,5.191672462507674
Gold Coast,0.6752090394156511,0.8694462772116504,Australia,AU,Queensland,,2.572714865485118,2.651766785099412,0.6752090394156511,0.8694462772116504,2.572714865485118
Canberra,-0.5346505093394636,0.4180705693190119,Australia,AU,Australian Capital Territory,primary,1.5810623739029914,1.5473699815176332,-0.5346505093394636,0.4180705693190119,1.5810623739029914
Newcastle,-0.1395223921851485,0.6951536283097159,Australia,AU,New South Wales,,1.1708212188340987,0.5639049765463123,-0.1395223921851485,0.6951536283097159,1.1708212188340987
Wollongong,-0.3916568295074866,0.6035813268957255,Australia,AU,New South Wales,,1.09406158111082,1.1503239182600349,-0.3916568295074866,0.6035813268957255,1.09406158111082
Geelong,-1.0096721883068762,-0.0865224940383517,Australia,AU,Victoria,,0.9390455339782722,0.7294168723169645,-1.0096721883068762,-0.0865224940383517,0.9390455339782722
Hobart,-1.7962371904151917,0.2277324335272557,Australia,AU,Tasmania,admin,0.8489328071193456,0.8624771430067264,-1.7962371904151917,0.2277324335272557,0.8489328071193456
Townsville,2.1317991945692203,0.1742087455280987,Australia,AU,Queensland,,0.615098570128456,0.6743653157639582,2.1317991945692203,0.1742087455280987,0.615098570128456
Ipswich,0.7417177277095938,0.8025495896058333,Australia,AU,Queensland,,0.5450920833978748,0.6070131299694155,0.7417177277095938,0.8025495896058333,0.5450920833978748
Cairns,2.518563844170571,0.0635065054982641,Australia,AU,Queensland,,0.5047421044298727,0.5371947928258873,2.518563844170571,0.0635065054982641,0.5047421044298727
Toowoomba,0.7500313137463367,0.7162800099947976,Australia,AU,Queensland,,0.4424041172558624,0.4892188956406507,0.7500313137463367,0.7162800099947976,0.4424041172558624
Darwin,3.2654896680556966,-1.5134933817664311,Australia,AU,Northern Territory,admin,0.4422744756137687,0.4943706987204684,3.2654896680556966,-1.5134933817664311,0.4422744756137687
Ballarat,-0.9099091558659618,-0.1393384482510589,Australia,AU,Victoria,,0.319087415882521,0.3295947748183616,-0.9099091558659618,-0.1393384482510589,0.319087415882521
Bendigo,-0.7768917792780765,-0.0953216320101896,Australia,AU,Victoria,,0.2941451496506209,0.3168723605293547,-0.7768917792780765,-0.0953216320101896,0.2941451496506209
Launceston,-1.5570220657939522,0.2087186900106833,Australia,AU,Tasmania,,0.2478120124732654,0.2813262104573291,-1.5570220657939522,0.2087186900106833,0.2478120124732654
Mackay,1.8184268825002343,0.4243239782977968,Australia,AU,Queensland,,0.2196051339813702,-0.0787792297141576,1.8184268825002343,0.4243239782977968,0.2196051339813702
Rockhampton,1.4469924855506375,0.5643496361065241,Australia,AU,Queensland,,0.2134923341299232,0.2437270862256769,1.4469924855506375,0.5643496361065241,0.2134923341299232
Maitland,-0.1062680480381778,0.6740272466246342,Australia,AU,New South Wales,,0.2112255696605885,-0.086414399859184,-0.1062680480381778,0.6740272466246342,0.2112255696605885
Bunbury,-0.2087911910432904,-3.11992231871845,Australia,AU,Western Australia,,0.1968785612688891,0.2114390104489078,-0.2087911910432904,-3.11992231871845,0.1968785612688891
Coffs Harbour,0.2951950216761353,0.8397531477532654,Australia,AU,New South Wales,,0.1868961548276766,0.0163074749160956,0.2951950216761353,0.8397531477532654,0.1868961548276766
Bundaberg,1.201741697466723,0.7585327733649639,Australia,AU,Queensland,,0.1833565451450586,0.2090718494682062,1.201741697466723,0.7585327733649639,0.1833565451450586
Wagga Wagga,-0.5056859755874505,0.2323696743071322,Australia,AU,New South Wales,,0.1264752925428091,0.1396537777268695,-0.5056859755874505,0.2323696743071322,0.1264752925428091
Hervey Bay,1.12936361743084,0.8137571350897725,Australia,AU,Queensland,,0.1195296433542756,0.1407857110685504,1.12936361743084,0.8137571350897725,0.1195296433542756
Shepparton,-0.7159199392846042,0.0243910098083346,Australia,AU,Victoria,,0.1075751125393958,0.0397423686250409,-0.7159199392846042,0.0243910098083346,0.1075751125393958
Albury,-0.6655894894181626,0.1845078565995762,Australia,AU,New South Wales,,0.0932084614746519,-0.0738512309452426,-0.6655894894181626,0.1845078565995762,0.0932084614746519
Port Macquarie,0.1071250783529384,0.8166303229989431,Australia,AU,New South Wales,,0.093204532940043,0.0984178334430485,0.1071250783529384,0.8166303229989431,0.093204532940043
Pakenham,-0.9965699767129692,0.0336654913680846,Australia,AU,Victoria,,0.0871074472270317,0.1052653845708597,-0.9965699767129692,0.0336654913680846,0.0871074472270317
Tamworth,0.1653201806101381,0.6071305590188172,Australia,AU,New South Wales,,0.0731650779000489,-0.0937525988993588,0.1653201806101381,0.6071305590188172,0.0731650779000489
Caloundra,0.8777446224427805,0.8408094668375186,Australia,AU,Queensland,,0.0669619217525973,0.0831948363726096,0.8777446224427805,0.8408094668375186,0.0669619217525973
Orange,-0.2004776050065468,0.4152290709823669,Australia,AU,New South Wales,,0.0638190940654781,0.0694394791102057,-0.2004776050065468,0.4152290709823669,0.0638190940654781
Dubbo,-0.0298163108442902,0.3625293118689285,Australia,AU,New South Wales,,0.0555652428521812,0.0707091381816729,-0.0298163108442902,0.3625293118689285,0.0555652428521812
Geraldton,0.5492249566148499,-3.228131645709445,Australia,AU,Western Australia,,0.0526424131031603,0.0675070149641421,0.5492249566148499,-3.228131645709445,0.0526424131031603
Nowra,-0.4665123581823184,0.5736769336204887,Australia,AU,New South Wales,,0.0517467072123313,-0.0549612863192442,-0.4665123581823184,0.5736769336204887,0.0517467072123313
Bathurst,-0.2232069492310026,0.4656999968280302,Australia,AU,New South Wales,,0.0493149442894228,0.0561962894054445,-0.2232069492310026,0.4656999968280302,0.0493149442894228
Queanbeyan,-0.5446600669277011,0.4294048730930568,Australia,AU,New South Wales,,0.0475353181115915,-0.0676837006082511,-0.5446600669277011,0.4294048730930568,0.0475353181115915
Frankston,-1.0110023620727555,-0.0036014459244017,Australia,AU,Victoria,,0.0465492559247578,0.0608316209985637,-1.0110023620727555,-0.0036014459244017,0.0465492559247578
Sunbury,-0.915080206380816,-0.0480830425623433,Australia,AU,Victoria,,0.0464981849748421,0.0607756699208381,-0.915080206380816,-0.0480830425623433,0.0464981849748421
Warrnambool,-1.0484633807543184,-0.2837055774960708,Australia,AU,Victoria,,0.0430803598651,0.0331315335952998,-1.0484633807543184,-0.2837055774960708,0.0430803598651
Wodonga,-0.6723733756241456,0.1815818527361942,Australia,AU,Victoria,,0.0427503629579524,-0.0129764583797104,-0.6723733756241456,0.1815818527361942,0.0427503629579524
Albany,-0.4897072632248307,-2.8824512253872765,Australia,AU,Western Australia,,0.0391164684447208,0.0318920020272234,-0.4897072632248307,-2.8824512253872765,0.0391164684447208
Gladstone,1.3681963170943885,0.6436580729523251,Australia,AU,Queensland,,0.0360247117075173,0.0493013950580193,1.3681963170943885,0.6436580729523251,0.0360247117075173
Mildura,-0.3510532753040334,-0.3180359477343323,Australia,AU,Victoria,,0.0333533081734659,0.046374723300061,-0.3510532753040334,-0.3180359477343323,0.0333533081734659
Southport,0.6835226254523941,0.8694462772116504,Australia,AU,Queensland,,0.0300926244480797,0.0428024621837296,0.6835226254523941,0.8694462772116504,0.0300926244480797
Dandenong,-0.981572267502686,0.0048491067496327,Australia,AU,Victoria,,0.0222276981610638,0.034185996213976,-0.981572267502686,0.0048491067496327,0.0222276981610638
Kalgoorlie,0.2209214440238747,-2.503824212827221,Australia,AU,Western Australia,,0.0220037716883565,0.0339406722577942,0.2209214440238747,-2.503824212827221,0.0220037716883565
Mount Gambier,-0.9563654746392812,-0.4633326377734887,Australia,AU,South Australia,,0.0211787794204877,0.0152745319426985,-0.9563654746392812,-0.4633326377734887,0.0211787794204877
Lismore,0.5421916628277653,0.8571190334984036,Australia,AU,New South Wales,,0.0175684561149095,-0.0791235440386233,0.5421916628277653,0.8571190334984036,0.0175684561149095
Maryborough,1.0874298894615086,0.7957046419398673,Australia,AU,Queensland,,0.0119192233473126,-0.0282209750954284,1.0874298894615086,0.7957046419398673,0.0119192233473126
Quakers Hill,-0.2754827782300415,0.603137672880336,Australia,AU,New South Wales,,0.011125659356315,0.0220230927022258,-0.2754827782300415,0.603137672880336,0.011125659356315
Gawler,-0.4190916634287379,-0.6785893407627988,Australia,AU,South Australia,,0.0087371103141044,-0.091729752243123,-0.4190916634287379,-0.6785893407627988,0.0087371103141044
Caboolture,0.8331671741137653,0.8237076608634467,Australia,AU,Queensland,,0.0085838974643573,0.0192384506031097,0.8331671741137653,0.8237076608634467,0.0085838974643573
Ballina,0.5394315522635666,0.8835270106047571,Australia,AU,New South Wales,,0.0083796136646946,-0.0815165285936597,0.5394315522635666,0.8835270106047571,0.0083796136646946
Taree,0.0295260662859807,0.7690959642075048,Australia,AU,New South Wales,,0.0083796136646946,-0.024816567212274,0.0295260662859807,0.7690959642075048,0.0083796136646946
Traralgon,-1.0172874331165327,0.1448430749858343,Australia,AU,Victoria,,0.004859646655121,0.0127825570193782,-1.0172874331165327,0.1448430749858343,0.004859646655121
Busselton,-0.2610836472144022,-3.1502914923907577,Australia,AU,Western Australia,,0.0042467952561328,0.0144869129254833,-0.2610836472144022,-3.1502914923907577,0.0042467952561328
Armidale,0.2623064753147804,0.6845904374671751,Australia,AU,New South Wales,,0.0010057542037911,0.010936171454431,0.2623064753147804,0.6845904374671751,0.0010057542037911
Goulburn,-0.445129814895816,0.470009778691786,Australia,AU,New South Wales,,-0.0016224354495623,0.0019624793730442,-0.445129814895816,0.470009778691786,-0.0016224354495623
Alice Springs,1.392954176311809,-1.1938934796344978,Australia,AU,Northern Territory,,-0.0020506457219323,0.0075877146490022,1.392954176311809,-1.1938934796344978,-0.0020506457219323
Devonport,-1.5135752651659342,0.124361047942145,Australia,AU,Tasmania,,-0.0047220492559837,0.0046610428910439,-1.5135752651659342,0.124361047942145,-0.0047220492559837
Bacchus Marsh,-0.9306931209578188,-0.0771318173793328,Australia,AU,Victoria,,-0.0079552332391076,-0.0670079837464872,-0.9306931209578188,-0.0771318173793328,-0.0079552332391076
Whyalla,-0.1589096748228325,-0.8030554184604654,Australia,AU,South Australia,,-0.009844858385988,-0.0009512805977465,-0.1589096748228325,-0.8030554184604654,-0.009844858385988
Cessnock,-0.1258049752245234,0.6534818404358905,Australia,AU,New South Wales,,-0.0099116434743393,-0.0292065748492114,-0.1258049752245234,0.6534818404358905,-0.0099116434743393
Gympie,0.9789375916820144,0.7918596404731838,Australia,AU,Queensland,,-0.0104066388350606,-0.0480319605393724,0.9789375916820144,0.7918596404731838,-0.0104066388350606
Griffith,-0.3678633462703278,0.0919954312005984,Australia,AU,New South Wales,,-0.0157023034878565,-0.0162130130296878,-0.3678633462703278,0.0919954312005984,-0.0157023034878565
Kwinana,-0.0269065557314305,-3.105461310455011,Australia,AU,Western Australia,,-0.0163505116983249,-0.018997655128804,-0.0269065557314305,-3.105461310455011,-0.0163505116983249
Burnie,-1.4941214738399564,0.0745978558829345,Australia,AU,Tasmania,,-0.0191044144591631,-0.0110956413823166,-1.4941214738399564,0.0745978558829345,-0.0191044144591631
Wangaratta,-0.7117631462662329,0.1207801262465247,Australia,AU,Victoria,,-0.0193676262779593,-0.0197379309264052,-0.7117631462662329,0.1207801262465247,-0.0193676262779593
Grafton,0.3981005896389384,0.8201478655495091,Australia,AU,New South Wales,,-0.0203104745840951,-0.0497320125164217,0.3981005896389384,0.8201478655495091,-0.0203104745840951
Yeppoon,1.4871803604522529,0.5877576670135984,Australia,AU,Queensland,,-0.0206051146797625,-0.0672662194898364,1.4871803604522529,0.5877576670135984,-0.0206051146797625
Murray Bridge,-0.5053700593180545,-0.6234494845647333,Australia,AU,South Australia,,-0.0214851064321559,-0.0318620990766529,-0.5053700593180545,-0.6234494845647333,-0.0214851064321559
Mount Isa,1.8862324902159096,-0.5988372499016112,Australia,AU,Queensland,,-0.0222354565424557,-0.0940194425008197,1.8862324902159096,-0.5988372499016112,-0.0222354565424557
Narangba,0.8107537461587068,0.8235492130008063,Australia,AU,Queensland,,-0.0222943845615891,-0.0145904317756433,0.8107537461587068,0.8235492130008063,-0.0222943845615891
Mount Eliza,-1.016156785415536,-0.0081436179866922,Australia,AU,Victoria,,-0.024985430768685,-0.0175386231788807,-1.016156785415536,-0.0081436179866922,-0.024985430768685
Broken Hill,0.0200984597203138,-0.3909747805020795,Australia,AU,New South Wales,,-0.0255904250984554,-0.0182014282534771,0.0200984597203138,-0.3909747805020795,-0.0255904250984554
Nerang,0.6787173727231567,0.8612069883544677,Australia,AU,Queensland,,-0.0290082502081976,-0.0219458465320414,0.6787173727231567,0.8612069883544677,-0.0290082502081976
Karratha,1.8857170478816316,-2.9917802506075803,Australia,AU,Western Australia,,-0.0296211016071859,-0.0226172594647494,1.8857170478816316,-2.9917802506075803,-0.0296211016071859
Mount Barker,-0.4970065917650911,-0.6674979903781313,Australia,AU,South Australia,,-0.0299314558412889,-0.0349523201387324,-0.4970065917650911,-0.6674979903781313,-0.0299314558412889
Horsham,-0.7713549309776063,-0.3136310971529934,Australia,AU,Victoria,,-0.0303832373213123,-0.0319352658706019,-0.7713549309776063,-0.3136310971529934,-0.0303832373213123
Lara,-0.98750816793292,-0.0794768457463768,Australia,AU,Victoria,,-0.0310078743241272,-0.0241365464214542,-0.98750816793292,-0.0794768457463768,-0.0310078743241272
Singleton,-0.0813272899279482,0.6338554318504485,Australia,AU,New South Wales,,-0.0310432311356073,-0.0730076608503016,-0.0813272899279482,0.6338554318504485,-0.0310432311356073
Port Lincoln,-0.4413887011792816,-0.983485281241916,Australia,AU,South Australia,,-0.0311218018277853,-0.0337558278612142,-0.4413887011792816,-0.983485281241916,-0.0311218018277853
Banora Point,0.6409903192884175,0.8840868597194125,Australia,AU,New South Wales,,-0.0317464388306003,-0.0249456850839486,0.6409903192884175,0.8840868597194125,-0.0317464388306003
Warwick,0.6422041028497821,0.7252798485926444,Australia,AU,Queensland,,-0.0348381955678038,-0.0419246852091624,0.6422041028497821,0.7252798485926444,-0.0348381955678038
Rochedale,0.7452925697053937,0.8402179281503376,Australia,AU,Queensland,,-0.0350856932481645,-0.0286040247813964,0.7452925697053937,0.8402179281503376,-0.0350856932481645
Kempsey,0.1653201806101381,0.8095846747069683,Australia,AU,New South Wales,,-0.0351171215250357,-0.0924872437569475,0.1653201806101381,0.8095846747069683,-0.0351171215250357
Ulladulla,-0.5438785898402474,0.5597123953266506,Australia,AU,New South Wales,,-0.0352389060979115,-0.0287718780145735,-0.5438785898402474,0.5597123953266506,-0.0352389060979115
Sale,-1.001358602270134,0.200447711580972,Australia,AU,Victoria,,-0.0358006865469841,-0.0356796841491661,-1.001358602270134,0.200447711580972,-0.0358006865469841
Echuca,-0.6743520091008899,-0.0442697306681853,Australia,AU,Victoria,,-0.0365903220033728,-0.0340872303985124,-0.6743520091008899,-0.0442697306681853,-0.0365903220033728
Australind,-0.1997958909515349,-3.111292191800094,Australia,AU,Western Australia,,-0.0381420931738879,-0.0319524815868252,-0.1997958909515349,-3.111292191800094,-0.0381420931738879
Broome,2.347037937060493,-2.4224559537671246,Australia,AU,Western Australia,,-0.0385113754271244,-0.0771308248857781,2.347037937060493,-2.4224559537671246,-0.0385113754271244
Port Hedland,1.9566153096029748,-2.8064279408935056,Australia,AU,Western Australia,,-0.0390024422532368,-0.0765368826760748,1.9566153096029748,-2.8064279408935056,-0.0390024422532368
Warragul,-1.0096721883068762,0.0807245065716078,Australia,AU,Victoria,,-0.0391752977760284,-0.0330844149285061,-1.0096721883068762,0.0807245065716078,-0.0391752977760284
Port Pirie,-0.1842661122348988,-0.7554999332873443,Australia,AU,South Australia,,-0.0395210088216115,-0.0936880399635215,-0.1842661122348988,-0.7554999332873443,-0.0395210088216115
Barwon Heads,-1.0262993603803623,-0.068913654903836,Australia,AU,Victoria,,-0.0396113651176162,-0.0335621510537022,-1.0262993603803623,-0.068913654903836,-0.0396113651176162
Emerald,1.4234317827225085,0.3148787579782244,Australia,AU,Queensland,,-0.0397920777096255,-0.03376013179027,1.4234317827225085,0.3148787579782244,-0.0397920777096255
Ulverstone,-1.5112640882477195,0.1053789939980984,Australia,AU,Tasmania,,-0.0398313630557145,-0.0338031710808282,-1.5112640882477195,0.1053789939980984,-0.0398313630557145
Morwell,-1.02352262264409,0.1300229182337491,Australia,AU,Victoria,,-0.0401574314282532,-0.0352578991016957,-1.02352262264409,0.1300229182337491,-0.0401574314282532
Gisborne,-0.8999328526218712,-0.0612870311155201,Australia,AU,Victoria,,-0.0404049291086138,-0.0557962485560735,-0.8999328526218712,-0.0612870311155201,-0.0404049291086138
Port Augusta,-0.0689899282494223,-0.7820241054929638,Australia,AU,South Australia,,-0.0410492087844732,-0.0662849236651092,-0.0689899282494223,-0.7820241054929638,-0.0410492087844732
Forster,-0.0171297785522201,0.7756134529573531,Australia,AU,New South Wales,,-0.0412809923263983,-0.0353913209024261,-0.0171297785522201,0.7756134529573531,-0.0412809923263983
Penrith,-0.2782595159663136,0.5836274593941628,Australia,AU,New South Wales,,-0.0430291902273584,-0.0373065693322665,-0.2782595159663136,0.5836274593941628,-0.0430291902273584
Torquay,-1.040149794717576,-0.0900400365889177,Australia,AU,Victoria,,-0.0431745460078876,-0.0374658147073319,-1.040149794717576,-0.0900400365889177,-0.0431745460078876
Jimboomba,0.7057032729984237,0.83071105639205,Australia,AU,Queensland,,-0.0433984724805949,-0.0377111386635137,0.7057032729984237,0.83071105639205,-0.0433984724805949
Lithgow,-0.2337319491535187,0.5261425748290534,Australia,AU,New South Wales,,-0.0442941783714239,-0.0721425711100816,-0.2337319491535187,0.5261425748290534,-0.0442941783714239
Bowral,-0.3993219558333628,0.5544624894779074,Australia,AU,New South Wales,,-0.0443884632020374,-0.0500461993374966,-0.3993219558333628,0.5544624894779074,-0.0443884632020374
Goonellabah,0.5424743247530145,0.8607633343390813,Australia,AU,New South Wales,,-0.0445809613978735,-0.0390066213093158,0.5424743247530145,0.8607633343390813,-0.0445809613978735
Raymond Terrace,-0.1137170211270985,0.6945304000500063,Australia,AU,New South Wales,,-0.0448952441665854,-0.0393509356337815,-0.1137170211270985,0.6945304000500063,-0.0448952441665854
Leopold,-1.0161900397596828,-0.0744382037144824,Australia,AU,Victoria,,-0.0449188153742388,-0.0393767592081164,-1.0161900397596828,-0.0744382037144824,-0.0449188153742388
Dalby,0.8137798914760812,0.6441017269677116,Australia,AU,Queensland,,-0.0452920261620842,-0.0397856324684194,0.8137798914760812,0.6441017269677116,-0.0452920261620842
Campbelltown,-0.331832264387085,0.5975603081154751,Australia,AU,New South Wales,,-0.0458930919572458,-0.04044413361396,-0.331832264387085,0.5975603081154751,-0.0458930919572458
Colac,-1.0413136967627197,-0.167362593556321,Australia,AU,Victoria,,-0.0459677341148149,-0.0555853560323382,-1.0413136967627197,-0.167362593556321,-0.0459677341148149
Muswellbrook,-0.0312296204705362,0.6041517392012207,Australia,AU,New South Wales,,-0.0466866559482434,-0.0425573627803681,-0.0312296204705362,0.6041517392012207,-0.0466866559482434
Esperance,-0.2965494052471478,-2.458814456647151,Australia,AU,Western Australia,,-0.0475470050275923,-0.0852996822337264,-0.2965494052471478,-2.458814456647151,-0.0475470050275923
Drouin,-1.006895450570604,0.0719253685997699,Australia,AU,Victoria,,-0.0485605669566882,-0.0433665014428624,-1.006895450570604,0.0719253685997699,-0.0485605669566882
Rutherford,-0.1059853861129286,0.672094182700448,Australia,AU,New South Wales,,-0.0485723525605149,-0.0433794132300299,-0.1059853861129286,0.672094182700448,-0.0485723525605149
Nelson Bay,-0.1059853861129286,0.7375225867791511,Australia,AU,New South Wales,,-0.0488237787754845,-0.0436548646896024,-0.1059853861129286,0.7375225867791511,-0.0488237787754845
Inverell,0.3817394523186282,0.6283731358031677,Australia,AU,New South Wales,,-0.0494523443129083,-0.0443434933385338,0.3817394523186282,0.6283731358031677,-0.0494523443129083
Parkes,-0.1691686399921735,0.3267940372486104,Australia,AU,New South Wales,,-0.0504423350343509,-0.0454280834606007,-0.1691686399921735,0.3267940372486104,-0.0504423350343509
Somerville,-1.0223088390827255,0.0008350942294658,Australia,AU,Victoria,,-0.0507251895261916,-0.0457379663526198,-1.0223088390827255,0.0008350942294658,-0.0507251895261916
Gracemere,1.437298844231795,0.5578321473566759,Australia,AU,Queensland,,-0.0508076887529785,-0.0458283488627921,1.437298844231795,0.5578321473566759,-0.0508076887529785
Batemans Bay,-0.6036532734444292,0.5287199933946319,Australia,AU,New South Wales,,-0.0508901879797654,-0.0879422946740005,-0.6036532734444292,0.5287199933946319,-0.0508901879797654
Nambour,0.9062934768929556,0.8228837319777281,Australia,AU,Queensland,,-0.0513105411829176,-0.0463792517819371,0.9062934768929556,0.8228837319777281,-0.0513105411829176
Swan Hill,-0.5413346325130046,-0.1710280207786815,Australia,AU,Victoria,,-0.0516405380900651,-0.0520733499227883,-0.5413346325130046,-0.1710280207786815,-0.0516405380900651
Mareeba,2.509751442971624,0.0261550626790375,Australia,AU,Queensland,,-0.0517348229206787,-0.0468440761199658,2.509751442971624,0.0261550626790375,-0.0517348229206787
Corinda,0.763898375255624,0.8377567046840249,Australia,AU,Queensland,,-0.0519705349972126,-0.0471023118633151,0.763898375255624,0.8377567046840249,-0.0519705349972126
Samford,0.7832856578933081,0.8148662701282372,Australia,AU,Queensland,,-0.0523162460427957,-0.0911013786009731,0.7832856578933081,0.8148662701282372,-0.0523162460427957
Mudgee,-0.0889425347376047,0.466692936767229,Australia,AU,New South Wales,,-0.0523476743196669,-0.0475154890526739,-0.0889425347376047,0.466692936767229,-0.0523476743196669
Casino,0.5369374764525443,0.8325913043620217,Australia,AU,New South Wales,,-0.052383031131147,-0.0475542244141763,0.5369374764525443,0.8325913043620217,-0.052383031131147
Portland,-1.040149794717576,-0.3770102422082415,Australia,AU,Victoria,,-0.0524380306156716,-0.0527275471392731,-1.040149794717576,-0.3770102422082415,-0.0524380306156716
Kingston,-1.8122491571219583,0.2259683806565527,Australia,AU,Tasmania,,-0.054366941108641,-0.0497277085873659,-1.8122491571219583,0.2259683806565527,-0.054366941108641
Kingaroy,0.921856509953738,0.7039527662815538,Australia,AU,Queensland,,-0.0544101549893389,-0.0514019369900802,0.921856509953738,0.7039527662815538,-0.0544101549893389
Kangaroo Flat,-0.7852053653148189,-0.0970856848808925,Australia,AU,Victoria,,-0.0544258691277745,-0.0497922675232032,-0.7852053653148189,-0.0970856848808925,-0.0544258691277745
Bowen,2.005382805294508,0.3236778959500623,Australia,AU,Queensland,,-0.0544926542161258,-0.0498654343171521,2.005382805294508,0.3236778959500623,-0.0544926542161258
Young,-0.3695260634776761,0.3307235442420372,Australia,AU,New South Wales,,-0.0548147940540555,-0.0502183564997295,-0.3695260634776761,0.3307235442420372,-0.0548147940540555
Cowra,-0.289432975599696,0.3685186410766502,Australia,AU,New South Wales,,-0.0557262140833201,-0.0512168680406799,-0.289432975599696,0.3685186410766502,-0.0557262140833201
Hamilton,-0.9403867622766616,-0.3329934259673722,Australia,AU,Victoria,,-0.0560758536635121,-0.051599917726648,-0.9403867622766616,-0.3329934259673722,-0.0560758536635121
Gunnedah,0.1847074632478227,0.5367057656715942,Australia,AU,New South Wales,,-0.0570501302465191,-0.0526672921324916,0.1847074632478227,0.5367057656715942,-0.0570501302465191
Mount Evelyn,-0.948700348313404,0.0226269569376287,Australia,AU,Victoria,,-0.0571444150771327,-0.0527705864298313,-0.948700348313404,0.0226269569376287,-0.0571444150771327
Andergrove,1.826407925095508,0.424313415106954,Australia,AU,Queensland,,-0.0582561903714511,-0.0539885983526287,1.826407925095508,0.424313415106954,-0.0582561903714511
Moree,0.4343977062753576,0.4928051445299907,Australia,AU,New South Wales,,-0.0586804721092122,-0.0544534226906573,0.4343977062753576,0.4928051445299907,-0.0586804721092122
Benalla,-0.7439533514005019,0.0858370909393965,Australia,AU,Victoria,,-0.0587315430591279,-0.054509373768383,-0.7439533514005019,0.0858370909393965,-0.0587315430591279
Currumbin,0.6517148452758157,0.8767348788930027,Australia,AU,Queensland,,-0.059426893684903,-0.0552711692112633,0.6517148452758157,0.8767348788930027,-0.059426893684903
Wollert,-0.9177239267405009,-0.0143759005837944,Australia,AU,Victoria,,-0.0596665342960459,-0.0555337088836684,-0.9177239267405009,-0.0143759005837944,-0.0596665342960459
Mittagong,-0.3944668215879056,0.5578321473566759,Australia,AU,New South Wales,,-0.0599061749071887,-0.0697065472644869,-0.3944668215879056,0.5578321473566759,-0.0599061749071887
Kelso,-0.2229741688219731,0.4686365638822581,Australia,AU,New South Wales,,-0.0600279594800646,-0.0559296703568039,-0.2229741688219731,0.4686365638822581,-0.0600279594800646
Yanchep,0.0877211685431803,-3.119848376382553,Australia,AU,Western Australia,,-0.0604208129409545,-0.056360063262386,0.0877211685431803,-3.119848376382553,-0.0604208129409545
Bentley,0.0127326224917603,-3.089215122939182,Australia,AU,Western Australia,,-0.0607586669173198,-0.0567302011611866,0.0127326224917603,-3.089215122939182,-0.0607586669173198
Moe,-1.0133634205071895,0.116058379939908,Australia,AU,Victoria,,-0.0607743810557554,-0.0567474168774099,-1.0133634205071895,0.116058379939908,-0.0607743810557554
Ayr,2.078924787375535,0.2363519972547704,Australia,AU,Queensland,,-0.0609315224401114,-0.0569195740396428,2.078924787375535,0.2363519972547704,-0.0609315224401114
Moranbah,1.6753500668078902,0.304664152433487,Australia,AU,Queensland,,-0.0609433080439381,-0.0569324858268102,1.6753500668078902,0.304664152433487,-0.0609433080439381
Leeton,-0.4108113317361412,0.1301391133330179,Australia,AU,New South Wales,,-0.0613833039201347,-0.0574145258810622,-0.4108113317361412,0.1301391133330179,-0.0613833039201347
Moss Vale,-0.4108113317361412,0.5491492044841068,Australia,AU,New South Wales,,-0.0615561594429263,-0.0576038987595183,-0.4108113317361412,0.5491492044841068,-0.0615561594429263
Wallan,-0.8877451354920055,-0.0196258064325346,Australia,AU,Victoria,,-0.0617879429848514,-0.0579266934387049,-0.8877451354920055,-0.0196258064325346,-0.0617879429848514
Springwood,-0.2692143343583372,0.570328402123403,Australia,AU,New South Wales,,-0.0619647270422518,-0.0580515073813237,-0.2692143343583372,0.570328402123403,-0.0619647270422518
Lesmurdie,0.0138965245369039,-3.075905502477581,Australia,AU,Western Australia,,-0.06211401135739,-0.0582150566854449,0.0138965245369039,-3.075905502477581,-0.06211401135739
Forbes,-0.2171047770800327,0.3007980245851145,Australia,AU,New South Wales,,-0.0621336540304345,-0.058236576330724,-0.2171047770800327,0.3007980245851145,-0.0621336540304345
Emu Plains,-0.277793955148256,0.5808387770117324,Australia,AU,New South Wales,,-0.0621768679111324,-0.058283919550338,-0.277793955148256,0.5808387770117324,-0.0621768679111324
Rye,-1.0474158689136894,-0.0349741227267495,Australia,AU,Victoria,,-0.0621965105841769,-0.0583054391956171,-1.0474158689136894,-0.0349741227267495,-0.0621965105841769
Darley,-0.9273178050269016,-0.0773325180053388,Australia,AU,Victoria,,-0.0623693661069684,-0.0584948120740732,-0.9273178050269016,-0.0773325180053388,-0.0623693661069684
Ararat,-0.8655644879459753,-0.2379247083844985,Australia,AU,Victoria,,-0.0626522205988091,-0.0588176067532598,-0.8655644879459753,-0.2379247083844985,-0.0626522205988091
Tweed Heads,0.6475081707412241,0.8852910634754632,Australia,AU,New South Wales,,-0.0631393588903126,-0.0593383821690142,0.6475081707412241,0.8852910634754632,-0.0631393588903126
Highfields,0.768088422618142,0.7161955044680575,Australia,AU,Queensland,,-0.0633161429477131,-0.0595320589765261,0.768088422618142,0.7161955044680575,-0.0633161429477131
Charters Towers,1.9915323709572943,0.1159421848406392,Australia,AU,Queensland,,-0.063359356828411,-0.0595794021961401,1.9915323709572943,0.1159421848406392,-0.063359356828411
Melton,-0.9320731762399193,-0.061878569802701,Australia,AU,Victoria,,-0.0635597120934648,-0.059798902577987,-0.9320731762399193,-0.061878569802701,-0.0635597120934648
Katoomba,-0.2722571068477857,0.5433394495207112,Australia,AU,New South Wales,,-0.0639722082273992,-0.0602508151288482,-0.2722571068477857,0.5433394495207112,-0.0639722082273992
Kilmore,-0.8655644879459753,-0.0231433489831036,Australia,AU,Victoria,,-0.0639957794350526,-0.0602766387031831,-0.8655644879459753,-0.0231433489831036,-0.0639957794350526
Mooroopna,-0.7159199392846042,0.0191094143870627,Australia,AU,Victoria,,-0.064058635988795,-0.0603455015680763,-0.7159199392846042,0.0191094143870627,-0.064058635988795
Yarrawonga,-0.6549647264632058,0.0877701548635827,Australia,AU,Victoria,,-0.0641057784041018,-0.0603971487167461,-0.6549647264632058,0.0877701548635827,-0.0641057784041018
Maryborough,-0.8267732954985332,-0.1514861177199796,Australia,AU,Victoria,,-0.0641411352155819,-0.0604358840782485,-0.8267732954985332,-0.1514861177199796,-0.0641411352155819
Deniliquin,-0.5743229419068002,-0.0247912067545377,Australia,AU,New South Wales,,-0.0643729187575069,-0.0606898158925419,-0.5743229419068002,-0.0247912067545377,-0.0643729187575069
Mandurah,-0.0750422188841711,-3.110436573341848,Australia,AU,Western Australia,,-0.0644711321227294,-0.0607974141189375,-0.0750422188841711,-3.110436573341848,-0.0644711321227294
Bli Bli,0.907773295207496,0.8311018944532249,Australia,AU,Queensland,,-0.0646125593686498,-0.060952355564947,0.907773295207496,0.8311018944532249,-0.0646125593686498
Kiama,-0.4311796175261616,0.6005285647422287,Australia,AU,New South Wales,,-0.0650093413641486,-0.0649119702963023,-0.4311796175261616,0.6005285647422287,-0.0650093413641486
Narre Warren North,-0.9819546924603758,0.0155918718364967,Australia,AU,Victoria,,-0.06511148326398,-0.0614989545550363,-0.9819546924603758,0.0155918718364967,-0.06511148326398
Narrabri,0.2902900059144567,0.4857700594288587,Australia,AU,New South Wales,,-0.0653786236173851,-0.0617916217308321,0.2902900059144567,0.4857700594288587,-0.0653786236173851
Bairnsdale,-0.9570139343501476,0.2585452612149512,Australia,AU,Victoria,,-0.0654807655172165,-0.0619035238862835,-0.9570139343501476,0.2585452612149512,-0.0654807655172165
Clifton Springs,-1.0096721883068762,-0.0636320594825641,Australia,AU,Victoria,,-0.0657204061283593,-0.0621660635586885,-1.0096721883068762,-0.0636320594825641,-0.0657204061283593
North Tamborine,0.6830736918064099,0.8482353899998255,Australia,AU,Queensland,,-0.065771477078275,-0.0622220146364142,0.6830736918064099,0.8482353899998255,-0.065771477078275
Bargara,1.2066467132284016,0.7704163630628243,Australia,AU,Queensland,,-0.0658539763050619,-0.0623123971465865,1.2066467132284016,0.7704163630628243,-0.0658539763050619
Kingscliff,0.635353707955506,0.8882593201022168,Australia,AU,New South Wales,,-0.0659364755318488,-0.0624027796567587,0.635353707955506,0.8882593201022168,-0.0659364755318488
Healesville,-0.9275505854359308,0.0364224841779894,Australia,AU,Victoria,,-0.0659482611356755,-0.0624156914439262,-0.9275505854359308,0.0364224841779894,-0.0659482611356755
Fremantle,0.0034380333026816,-3.1082394296466003,Australia,AU,Western Australia,,-0.0659561182048933,-0.0624242993020378,0.0034380333026816,-3.1082394296466003,-0.0659561182048933
Blaxland,-0.2772951399860514,0.5755254920179347,Australia,AU,New South Wales,,-0.0659875464817645,-0.0624587307344844,-0.2772951399860514,0.5755254920179347,-0.0659875464817645
Atherton,2.462779681864027,0.0326302986655172,Australia,AU,Queensland,,-0.0664589706348323,-0.0629752022211829,2.462779681864027,0.0326302986655172,-0.0664589706348323
Kyabram,-0.7048462426836625,-0.0125801581405598,Australia,AU,Victoria,,-0.0664982559809213,-0.0630182415117411,-0.7048462426836625,-0.0125801581405598,-0.0664982559809213
Innisfail,2.4199148322585806,0.0908546065896051,Australia,AU,Queensland,,-0.0668321814226777,-0.0895993073604916,2.4199148322585806,0.0908546065896051,-0.0668321814226777
Sanctuary Point,-0.5031420182602078,0.5764973055754478,Australia,AU,New South Wales,,-0.0668753953033756,-0.0634314187010999,-0.5031420182602078,0.5764973055754478,-0.0668753953033756
Collie,-0.2137294611491154,-3.064708520184486,Australia,AU,Western Australia,,-0.0670050369454693,-0.063573448359942,-0.2137294611491154,-3.064708520184486,-0.0670050369454693
Gatton,0.7509624353824521,0.7506631961872705,Australia,AU,Queensland,,-0.0673625335948791,-0.0639651059040217,0.7509624353824521,0.7506631961872705,-0.0673625335948791
Merrimac,0.6696721911151803,0.8659287346610843,Australia,AU,New South Wales,,-0.0674803896331461,-0.0640942237756964,0.6696721911151803,0.8659287346610843,-0.0674803896331461
Murwillumbah,0.6225674126309952,0.8676822243409444,Australia,AU,New South Wales,,-0.0676336024828932,-0.0642620770088734,0.6225674126309952,0.8676822243409444,-0.0676336024828932
Urraween,1.1276676458793442,0.8083804709509176,Australia,AU,Queensland,,-0.0678811001632538,-0.0645332245393901,1.1276676458793442,0.8083804709509176,-0.0678811001632538
Kyneton,-0.8572509019092329,-0.0759593031958109,Australia,AU,Victoria,,-0.067951813786214,-0.0646106952623949,-0.8572509019092329,-0.0759593031958109,-0.067951813786214
Bongaree,0.8307229798189633,0.8444432044873533,Australia,AU,Queensland,,-0.0679675279246496,-0.0646279109786182,0.8307229798189633,0.8444432044873533,-0.0679675279246496
Roma,0.915205641124344,0.3821557204543706,Australia,AU,Queensland,,-0.0683564528509306,-0.0650539999551444,0.915205641124344,0.3821557204543706,-0.0683564528509306
Mount Cotton,0.7413685570960508,0.8505381656035009,Australia,AU,Queensland,,-0.0684075238008463,-0.0651099510328701,0.7413685570960508,0.8505381656035009,-0.0684075238008463
Cootamundra,-0.4263411104527773,0.3016747694250476,Australia,AU,New South Wales,,-0.0686157361351179,-0.0653380592728286,-0.4263411104527773,0.3016747694250476,-0.0686157361351179
Beerwah,0.868267134360894,0.8229682375044682,Australia,AU,Queensland,,-0.0686668070850336,-0.0653940103505543,0.868267134360894,0.8229682375044682,-0.0686668070850336
Castlemaine,-0.8290345909005279,-0.1005504114772471,Australia,AU,Victoria,,-0.0687139495003404,-0.0654456574992242,-0.8290345909005279,-0.1005504114772471,-0.0687139495003404
Pottsville,0.613655248399607,0.8864318880864565,Australia,AU,New South Wales,,-0.068922161834612,-0.0656737657391827,0.613655248399607,0.8864318880864565,-0.068922161834612
Cooma,-0.691261843099625,0.4179543742197431,Australia,AU,New South Wales,,-0.0690125181306167,-0.0657727561074665,-0.691261843099625,0.4179543742197431,-0.0690125181306167
Gordonvale,2.491411672174569,0.0652283056055985,Australia,AU,Queensland,,-0.0690518034767057,-0.0658157953980248,2.491411672174569,0.0652283056055985,-0.0690518034767057
Lysterfield,-0.9736411064236334,0.0138278189657937,Australia,AU,Victoria,,-0.0690832317535769,-0.0658502268304713,-0.9736411064236334,0.0138278189657937,-0.0690832317535769
Bomaderry,-0.4606429664403781,0.5742050931626153,Australia,AU,New South Wales,,-0.0690910888227947,-0.065858834688583,-0.4606429664403781,0.5742050931626153,-0.0690910888227947
Chinchilla,0.8875380267940638,0.5763177313311246,Australia,AU,Queensland,,-0.0692835870186308,-0.0660697272123182,0.8875380267940638,0.5763177313311246,-0.0692835870186308
Northam,0.0705785541354169,-3.0108256836966825,Australia,AU,Western Australia,,-0.0695350132336003,-0.0663451786718907,0.0705785541354169,-3.0108256836966825,-0.0695350132336003
Yass,-0.4560372397760233,0.3955392832518705,Australia,AU,New South Wales,,-0.0697000116871741,-0.0665259436922352,-0.4560372397760233,0.3955392832518705,-0.0697000116871741
Strathalbyn,-0.530260935912063,-0.6622163949568594,Australia,AU,South Australia,,-0.0697078687563919,-0.0665345515503469,-0.530260935912063,-0.6622163949568594,-0.0697078687563919
Burpengary,0.8202811157568137,0.827193513841484,Australia,AU,Queensland,,-0.0699867947136237,-0.0668401305133102,0.8202811157568137,0.827193513841484,-0.0699867947136237
Waterford,0.7306440311086527,0.8412425576620651,Australia,AU,Queensland,,-0.0699946517828415,-0.0668487383714218,0.7306440311086527,0.8412425576620651,-0.0699946517828415
Lennox Head,0.5452510624892867,0.8889248011252949,Australia,AU,New South Wales,,-0.0700889366134551,-0.0669520326687615,0.5452510624892867,0.8889248011252949,-0.0700889366134551
Beaudesert,0.6799810378007416,0.8267498598260975,Australia,AU,Queensland,,-0.0701360790287619,-0.0670036798174314,0.6799810378007416,0.8267498598260975,-0.0701360790287619
Margaret River,-0.3121623198241506,-3.1788966131923595,Australia,AU,Western Australia,,-0.0701478646325886,-0.0670165916045988,-0.3121623198241506,-3.1788966131923595,-0.0701478646325886
Helensburgh,-0.3501221536679192,0.615929696990655,Australia,AU,New South Wales,,-0.0701832214440686,-0.0670553269661012,-0.3501221536679192,0.615929696990655,-0.0701832214440686
Goondiwindi,0.5871847904586179,0.5430119906045906,Australia,AU,Queensland,,-0.0702932204131178,-0.0671758369796642,0.5871847904586179,0.5430119906045906,-0.0702932204131178
Seymour,-0.8234478610838367,-0.0041296054665283,Australia,AU,Victoria,,-0.070403219382167,-0.0672963469932272,-0.8234478610838367,-0.0041296054665283,-0.070403219382167
Nambucca Heads,0.2387956540028715,0.8262005739022852,Australia,AU,New South Wales,,-0.070403219382167,-0.0672963469932272,0.2387956540028715,0.8262005739022852,-0.070403219382167
Nuriootpa,-0.3972435593241777,-0.6534172569850215,Australia,AU,South Australia,,-0.0704542903320827,-0.0673522980709528,-0.3972435593241777,-0.6534172569850215,-0.0704542903320827
Wauchope,0.1018542648056433,0.7991376789636933,Australia,AU,New South Wales,,-0.0704621474013005,-0.0673609059290645,0.1018542648056433,0.7991376789636933,-0.0704621474013005
Tumut,-0.536579261299987,0.3225687609115947,Australia,AU,New South Wales,,-0.0707842872392302,-0.0677138281116418,-0.536579261299987,0.3225687609115947,-0.0707842872392302
Wentworthville,-0.2902643342033707,0.6125283495393579,Australia,AU,New South Wales,,-0.0709139288813239,-0.0678558577704839,-0.2902643342033707,0.6125283495393579,-0.0709139288813239
Tuncurry,-0.0161986569161047,0.7742613645295079,Australia,AU,New South Wales,,-0.0709571427620218,-0.0679032009900979,-0.0161986569161047,0.7742613645295079,-0.0709571427620218
Glen Innes,0.3870102658659233,0.6936853447826019,Australia,AU,New South Wales,,-0.0710789273348976,-0.0680366227908284,0.3870102658659233,0.6936853447826019,-0.0710789273348976
Yamba,0.4396685198226527,0.8641646817903784,Australia,AU,New South Wales,,-0.0713892815690006,-0.0683766331862383,0.4396685198226527,0.8641646817903784,-0.0713892815690006
Wentworth Falls,-0.272489887256814,0.5501421444233057,Australia,AU,New South Wales,,-0.0713892815690006,-0.0683766331862383,-0.272489887256814,0.5501421444233057,-0.0713892815690006
South Grafton,0.3928297760916433,0.8202640606487779,Australia,AU,New South Wales,,-0.0714207098458718,-0.0684110646186848,0.3928297760916433,0.8202640606487779,-0.0714207098458718
Kurri Kurri,-0.1228952201116625,0.6669815983326594,Australia,AU,New South Wales,,-0.0715149946764854,-0.0685143589160245,-0.1228952201116625,0.6669815983326594,-0.0715149946764854
Stawell,-0.8267732954985332,-0.2537694946483113,Australia,AU,Victoria,,-0.0715621370917922,-0.0698399690652174,-0.8267732954985332,-0.2537694946483113,-0.0715621370917922
Cobram,-0.6466511404264634,0.0507989869146882,Australia,AU,Victoria,,-0.0716328507147524,-0.0686434767876991,-0.6466511404264634,0.0507989869146882,-0.0716328507147524
Wynyard,-1.4835465924012192,0.0578446352066631,Australia,AU,Tasmania,,-0.0716839216646681,-0.0686994278654248,-1.4835465924012192,0.0578446352066631,-0.0716839216646681
Naracoorte,-0.810977482028722,-0.4675473509196645,Australia,AU,South Australia,,-0.0718449915836329,-0.0688758889567135,-0.810977482028722,-0.4675473509196645,-0.0718449915836329
North Mackay,1.8216691810545644,0.4235000494120782,Australia,AU,Queensland,,-0.0719510620180732,-0.0689920950412207,1.8216691810545644,0.4235000494120782,-0.0719510620180732
Cannington,0.0101221564762226,-3.0864686933201217,Australia,AU,Western Australia,,-0.0719667761565088,-0.0690093107574439,0.0101221564762226,-3.0864686933201217,-0.0719667761565088
Concord,-0.2937726675108757,0.6254682583214713,Australia,AU,New South Wales,,-0.0720257041756423,-0.0690738696932812,-0.2937726675108757,0.6254682583214713,-0.0720257041756423
Woodend,-0.8788163440885439,-0.0679312781554771,Australia,AU,Victoria,,-0.0724499859134034,-0.0695386940313099,-0.8788163440885439,-0.0679312781554771,-0.0724499859134034
Dromana,-1.04093127180503,-0.0215588703567208,Australia,AU,Victoria,,-0.0724617715172301,-0.0695516058184774,-1.04093127180503,-0.0215588703567208,-0.0724617715172301
Emerald,-0.9736078520794864,0.0282993904200756,Australia,AU,Victoria,,-0.0725599848824526,-0.0696592040448729,-0.9736078520794864,0.0282993904200756,-0.0725599848824526
Biloela,1.2765307174532616,0.5645186471600044,Australia,AU,Queensland,,-0.0726385555746306,-0.0697452826259893,1.2765307174532616,0.5645186471600044,-0.0726385555746306
Alstonville,0.5396975870167424,0.8730800148614851,Australia,AU,New South Wales,,-0.0727131977321996,-0.0698270572780499,0.5396975870167424,0.8730800148614851,-0.0727131977321996
Cannonvale,1.9605559493843905,0.371560840039301,Australia,AU,Queensland,,-0.0728035540282043,-0.0699260476463338,1.9605559493843905,0.371560840039301,-0.0728035540282043
Point Vernon,1.1346011766339883,0.8079368169355311,Australia,AU,Queensland,,-0.0728703391165556,-0.0699992144402828,1.1346011766339883,0.8079368169355311,-0.0728703391165556
Palmwoods,0.8960843932398351,0.8229365479319396,Australia,AU,Queensland,,-0.0729606954125603,-0.0700982048085666,0.8960843932398351,0.8229365479319396,-0.0729606954125603
Scone,-0.000951540124719,0.6000849107268422,Australia,AU,New South Wales,,-0.073164979212223,-0.0703220091194693,-0.000951540124719,0.6000849107268422,-0.073164979212223
Whittlesea,-0.9039067467474338,-0.005819716001334,Australia,AU,Victoria,,-0.0732160501621387,-0.070377960197195,-0.9039067467474338,-0.005819716001334,-0.0732160501621387
East Ballina,0.535091860352387,0.8892205704688869,Australia,AU,New South Wales,,-0.0733731915464947,-0.0705501173594279,0.535091860352387,0.8892205704688869,-0.0733731915464947
Sarina,1.771638020285446,0.4276408202223539,Australia,AU,Queensland,,-0.0735656897423307,-0.0707610098831631,1.771638020285446,0.4276408202223539,-0.0735656897423307
Byron Bay,0.5701918205995156,0.8924529068667038,Australia,AU,New South Wales,,-0.0735696182769396,-0.0707653138122189,0.5701918205995156,0.8924529068667038,-0.0735696182769396
Granville,-0.2960007085687223,0.6170493952199656,Australia,AU,New South Wales,,-0.0736521175037265,-0.0708556963223911,-0.2960007085687223,0.6170493952199656,-0.0736521175037265
Corowa,-0.6494112509906615,0.1282588653630431,Australia,AU,New South Wales,,-0.0737228311266867,-0.0709331670453959,-0.6494112509906615,0.1282588653630431,-0.0737228311266867
Richmond,-0.2528531970380276,0.5896379149835702,Australia,AU,New South Wales,,-0.0737228311266867,-0.0709331670453959,-0.2528531970380276,0.5896379149835702,-0.0737228311266867
Cooranbong,-0.1656769338567414,0.6635696876905163,Australia,AU,New South Wales,,-0.0738524727687804,-0.071075196704238,-0.1656769338567414,0.6635696876905163,-0.0738524727687804
Bullsbrook,0.0689324641001416,-3.0780181406460887,Australia,AU,Western Australia,,-0.0738564013033893,-0.0710795006332938,0.0689324641001416,-3.0780181406460887,-0.0738564013033893
Inverloch,-1.0900479381101067,0.0590171493901851,Australia,AU,Victoria,,-0.0738996151840871,-0.0711268438529079,-1.0900479381101067,0.0590171493901851,-0.0738996151840871
New Norfolk,-1.779975816127323,0.1996765986494679,Australia,AU,Tasmania,,-0.0739192578571316,-0.071148363498187,-1.779975816127323,0.1996765986494679,-0.0739192578571316
Stanthorpe,0.5691276815868126,0.7146955313684178,Australia,AU,Queensland,,-0.074021399756963,-0.0712602656536383,0.5691276815868126,0.7146955313684178,-0.074021399756963
Wingham,0.0378396523227231,0.7603285158081956,Australia,AU,New South Wales,,-0.0741471128644478,-0.0713979913834246,0.0378396523227231,0.7603285158081956,-0.0741471128644478
West Tamworth,0.1643059231136554,0.609972057355462,Australia,AU,New South Wales,,-0.0742728259719326,-0.0715357171132109,0.1643059231136554,0.609972057355462,-0.0742728259719326
Irymple,-0.3584357397046616,-0.3171486397035594,Australia,AU,Victoria,,-0.0743396110602838,-0.0716088839071598,-0.3584357397046616,-0.3171486397035594,-0.0743396110602838
Dunsborough,-0.2559125966995489,-3.1762558154817246,Australia,AU,Western Australia,,-0.0743592537333283,-0.0716304035524389,-0.2559125966995489,-3.1762558154817246,-0.0743592537333283
Kununurra,2.71089034354458,-1.7355844692308675,Australia,AU,Western Australia,,-0.0744063961486351,-0.0716820507011088,2.71089034354458,-1.7355844692308675,-0.0744063961486351
Smithfield Heights,2.5350081173512486,0.0551298951601299,Australia,AU,Queensland,,-0.0744260388216796,-0.0717035703463879,2.5350081173512486,0.0551298951601299,-0.0744260388216796
Woolgoolga,0.3263210877977007,0.8484360906258345,Australia,AU,New South Wales,,-0.0744771097715953,-0.0717595214241136,0.3263210877977007,0.8484360906258345,-0.0744771097715953
Bannockburn,-0.9930450162333904,-0.1058848228527305,Australia,AU,Victoria,,-0.0745046095138576,-0.0717896489275043,-0.9930450162333904,-0.1058848228527305,-0.0745046095138576
Maffra,-0.9764178441599056,0.1916063208457655,Australia,AU,Victoria,,-0.0745163951176843,-0.0718025607146718,-0.9764178441599056,0.1916063208457655,-0.0745163951176843
Tannum Sands,1.3518185526020057,0.6547494233369956,Australia,AU,Queensland,,-0.0750467472898857,-0.0723835911372076,1.3518185526020057,0.6547494233369956,-0.0750467472898857
Ocean Shores,0.593320216953734,0.8839706646201436,Australia,AU,New South Wales,,-0.0750781755667569,-0.0724180225696542,0.593320216953734,0.8839706646201436,-0.0750781755667569
Howard Springs,3.2564943679639407,-1.4911099803710877,Australia,AU,Northern Territory,,-0.0750978182398014,-0.0724395422149333,3.2564943679639407,-1.4911099803710877,-0.0750978182398014
Leongatha,-1.0650905528278043,0.0824885594423108,Australia,AU,Victoria,,-0.075148889189717,-0.0724954932926589,-1.0650905528278043,0.0824885594423108,-0.075148889189717
Worragee,-0.4716834086971729,0.5777543252857099,Australia,AU,New South Wales,,-0.0753492444547709,-0.0727149936745058,-0.4716834086971729,0.5777543252857099,-0.0753492444547709
Tahmoor,-0.3567730224973133,0.5729163838798275,Australia,AU,New South Wales,,-0.0753531729893798,-0.0727192976035616,-0.3567730224973133,0.5729163838798275,-0.0753531729893798
Red Cliffs,-0.3707731013831876,-0.3148881168632556,Australia,AU,Victoria,,-0.0753806727316421,-0.0727494251069524,-0.3707731013831876,-0.3148881168632556,-0.0753806727316421
Glenbrook,-0.2805706928845281,0.5764973055754478,Australia,AU,New South Wales,,-0.0754160295431222,-0.0727881604684548,-0.2805706928845281,0.5764973055754478,-0.0754160295431222
McMinns Lagoon,3.249727108930032,-1.4914268760963625,Australia,AU,Northern Territory,,-0.0755181714429536,-0.0729000626239061,3.249727108930032,-1.4914268760963625,-0.0755181714429536
Kiama Downs,-0.424678393245429,0.6002011058261111,Australia,AU,New South Wales,,-0.0756006706697404,-0.0729904451340784,-0.424678393245429,0.6002011058261111,-0.0756006706697404
Lyndhurst,-0.998199439576172,0.0040040514822283,Australia,AU,Victoria,,-0.0756910269657451,-0.0730894355023622,-0.998199439576172,0.0040040514822283,-0.0756910269657451
Wonthaggi,-1.0854255842736775,0.0446406466534863,Australia,AU,Victoria,,-0.0757538835194875,-0.0731582983672554,-1.0854255842736775,0.0446406466534863,-0.0757538835194875
Junee,-0.4636524845856797,0.2549009603742735,Australia,AU,New South Wales,,-0.0759228105076702,-0.0733433673166557,-0.4636524845856797,0.2549009603742735,-0.0759228105076702
Pinjarra,-0.0918522898504656,-3.094803050894887,Australia,AU,Western Australia,,-0.075969952922977,-0.0733950144653255,-0.0918522898504656,-3.094803050894887,-0.075969952922977
Encounter Bay,-0.5813894900380311,-0.6938531515302705,Australia,AU,South Australia,,-0.076005309734457,-0.0734337498268279,-0.5813894900380311,-0.6938531515302705,-0.076005309734457
Nairne,-0.4914531162925468,-0.6604523420861564,Australia,AU,South Australia,,-0.0762370932763821,-0.0736876816411214,-0.4914531162925468,-0.6604523420861564,-0.0762370932763821
Cowes,-1.0597366034201414,0.0076906050862746,Australia,AU,Victoria,,-0.0762488788802088,-0.0737005934282888,-1.0597366034201414,0.0076906050862746,-0.0762488788802088
Picton,-0.3498561189147429,0.5737931287197575,Australia,AU,New South Wales,,-0.0763392351762135,-0.0737995837965727,-0.3498561189147429,0.5737931287197575,-0.0763392351762135
Salamander Bay,-0.1083464445473628,0.7310050980293028,Australia,AU,New South Wales,,-0.0763431637108224,-0.0738038877256285,-0.1083464445473628,0.7310050980293028,-0.0763431637108224
Lakes Entrance,-0.9625674098226916,0.2972699188437087,Australia,AU,Victoria,,-0.0763628063838669,-0.0738254073709076,-0.9625674098226916,0.2972699188437087,-0.0763628063838669
Mansfield,-0.8267732954985332,0.0965376032628919,Australia,AU,Victoria,,-0.0764531626798715,-0.0739243977391915,-0.8267732954985332,0.0965376032628919,-0.0764531626798715
Churchill,-1.0373896841533767,0.1318186606769807,Australia,AU,Victoria,,-0.0764688768183071,-0.0739416134554148,-1.0373896841533767,0.1318186606769807,-0.0764688768183071
Bucasia,1.8367167717810693,0.4215352959153634,Australia,AU,Queensland,,-0.0765160192336139,-0.0739932606040846,1.8367167717810693,0.4215352959153634,-0.0765160192336139
Strathfield,-0.29646626938678,0.6252886840771482,Australia,AU,New South Wales,,-0.0765317333720495,-0.0740104763203079,-0.29646626938678,0.6252886840771482,-0.0765317333720495
Boyne Island,1.3517686710857846,0.6534290244816761,Australia,AU,Queensland,,-0.0765592331143118,-0.0740406038236987,1.3517686710857846,0.6534290244816761,-0.0765592331143118
Blackwater,1.4317453687592512,0.3800219559041754,Australia,AU,Queensland,,-0.0766024469950097,-0.0740879470433127,1.4317453687592512,0.3800219559041754,-0.0766024469950097
Millicent,-0.9176740452242798,-0.5087966111597892,Australia,AU,South Australia,,-0.0766613750141432,-0.07415250597915,-0.9176740452242798,-0.5087966111597892,-0.0766613750141432
Oakey,0.7721288254319991,0.6921008661562221,Australia,AU,Queensland,,-0.0767753025178013,-0.0742773199217688,0.7721288254319991,0.6921008661562221,-0.0767753025178013
Temora,-0.3916900838516335,0.2497355600522704,Australia,AU,New South Wales,,-0.0768224449331081,-0.0743289670704387,-0.3916900838516335,0.2497355600522704,-0.0768224449331081
Narromine,-0.0258922982349473,0.3236778959500623,Australia,AU,New South Wales,,-0.0768381590715436,-0.074346182786662,-0.0258922982349473,0.3236778959500623,-0.0768381590715436
Ningi,0.8331671741137653,0.8359926518133218,Australia,AU,Queensland,,-0.0768931585560682,-0.0744064377934435,0.8331671741137653,0.8359926518133218,-0.0768931585560682
Bega,-0.7660342359140903,0.4936290734157092,Australia,AU,New South Wales,,-0.0769206582983305,-0.0744365652968342,-0.7660342359140903,0.4936290734157092,-0.0769206582983305
Mount Low,2.137070008116515,0.1596843581196054,Australia,AU,Queensland,,-0.0769717292482462,-0.0744925163745599,2.137070008116515,0.1596843581196054,-0.0769717292482462
Leura,-0.2725397687730349,0.5455049036434321,Australia,AU,New South Wales,,-0.0770149431289441,-0.0745398595941739,-0.2725397687730349,0.5455049036434321,-0.0770149431289441
Renmark,-0.3485924538371585,-0.4676635460189303,Australia,AU,South Australia,,-0.0770542284750331,-0.0745828988847321,-0.3485924538371585,-0.4676635460189303,-0.0770542284750331
South West Rocks,0.1984248802084484,0.8314504797510284,Australia,AU,New South Wales,,-0.077176013047909,-0.0747163206854626,0.1984248802084484,0.8314504797510284,-0.077176013047909
Tanunda,-0.4055571453609201,-0.6551707466648845,Australia,AU,South Australia,,-0.0772349410670424,-0.0747808796212999,-0.4055571453609201,-0.6551707466648845,-0.0772349410670424
Kadina,-0.313409357729662,-0.787654286212039,Australia,AU,South Australia,,-0.0772388696016513,-0.0822654122493726,-0.313409357729662,-0.787654286212039,-0.0772388696016513
Newman,1.450500818858143,-2.6869793788460474,Australia,AU,Western Australia,,-0.0773174402938293,-0.0748712621314721,1.450500818858143,-2.6869793788460474,-0.0773174402938293
Glenella,1.8219850973239604,0.4209543204190253,Australia,AU,Queensland,,-0.0775060099550565,-0.0750778507261515,1.8219850973239604,0.4209543204190253,-0.0775060099550565
Roxby Downs,0.2519144927688519,-0.8757512978388351,Australia,AU,South Australia,,-0.0775806521126256,-0.0778108456765979,0.2519144927688519,-0.8757512978388351,-0.0775806521126256
Numurkah,-0.6660384230641475,0.0279085523589006,Australia,AU,Victoria,,-0.0776710084086302,-0.075258615746496,-0.6660384230641475,0.0279085523589006,-0.0776710084086302
Korumburra,-1.056776966791062,0.0684078260492039,Australia,AU,Victoria,,-0.0777024366855014,-0.0752930471789426,-1.056776966791062,0.0684078260492039,-0.0777024366855014
Rasmussen,2.116286043024658,0.1634026012961803,Australia,AU,Queensland,,-0.0777535076354171,-0.0753489982566683,2.116286043024658,0.1634026012961803,-0.0777535076354171
Tatura,-0.7242335253213478,0.0067504811012902,Australia,AU,Victoria,,-0.0777849359122883,-0.0753834296891148,-0.7242335253213478,0.0067504811012902,-0.0777849359122883
Carnarvon,1.1988818238700836,-3.328249568515053,Australia,AU,Western Australia,,-0.0778713636736841,-0.0754781161283429,1.1988818238700836,-3.328249568515053,-0.0778713636736841
Romsey,-0.8766548117189911,-0.0442697306681853,Australia,AU,Victoria,,-0.0779263631582087,-0.0755383711351244,-0.8766548117189911,-0.0442697306681853,-0.0779263631582087
Blackheath,-0.2583069094781312,0.5410472371078787,Australia,AU,New South Wales,,-0.0779892197119511,-0.0756072340000175,-0.2583069094781312,0.5410472371078787,-0.0779892197119511
Bargo,-0.3692434015524269,0.5720290758490515,Australia,AU,New South Wales,,-0.0780010053157778,-0.075620145787185,-0.3692434015524269,0.5720290758490515,-0.0780010053157778
Old Bar,0.0184357425129656,0.783145008028086,Australia,AU,New South Wales,,-0.0780167194542134,-0.0756373615034083,0.0184357425129656,0.783145008028086,-0.0780167194542134
Narrandera,-0.4440656758831131,0.1459838995968277,Australia,AU,New South Wales,,-0.0780717189387379,-0.0756976165101898,-0.4440656758831131,0.1459838995968277,-0.0780717189387379
Ingham,2.2326263660228376,0.1053789939980984,Australia,AU,Queensland,,-0.0781424325616981,-0.0757750872331945,2.2326263660228376,0.1053789939980984,-0.0781424325616981
Manjimup,-0.359732659126394,-3.0657225865053706,Australia,AU,Western Australia,,-0.0781738608385693,-0.0758095186656411,-0.359732659126394,-3.0657225865053706,-0.0781738608385693
George Town,-1.5001737644747053,0.1740397344746184,Australia,AU,Tasmania,,-0.0781817179077871,-0.0758181265237527,-1.5001737644747053,0.1740397344746184,-0.0781817179077871
Wyong,-0.2002614517695914,0.660083834712479,Australia,AU,New South Wales,,-0.078264217134574,-0.075908509033925,-0.2002614517695914,0.660083834712479,-0.078264217134574
Broadford,-0.8517140536087627,-0.0107844156973282,Australia,AU,Victoria,,-0.0782917168768363,-0.0759386365373157,-0.8517140536087627,-0.0107844156973282,-0.0782917168768363
Drysdale,-1.0124489260431484,-0.0636320594825641,Australia,AU,Victoria,,-0.0784645723996279,-0.0761280094157719,-1.0124489260431484,-0.0636320594825641,-0.0784645723996279
Narrogin,-0.1427314363953314,-2.9567527097737134,Australia,AU,Western Australia,,-0.0784685009342368,-0.0761323133448277,-0.1427314363953314,-2.9567527097737134,-0.0784685009342368
Cockatoo,-0.9739237683488826,0.0341091453834711,Australia,AU,Victoria,,-0.0785392145571969,-0.0762097840678325,-0.9739237683488826,0.0341091453834711,-0.0785392145571969
Victor Harbor,-0.5773657143962475,-0.6921419146137789,Australia,AU,South Australia,,-0.0786295708532016,-0.0763087744361163,-0.5773657143962475,-0.6921419146137789,-0.0786295708532016
Oxford Park,0.7745896468988752,0.8298871275063314,Australia,AU,Queensland,,-0.0786374279224194,-0.076317382294228,0.7745896468988752,0.8298871275063314,-0.0786374279224194
Moama,-0.6660384230641475,-0.0442697306681853,Australia,AU,New South Wales,,-0.0787670695645131,-0.0764594119530701,-0.6660384230641475,-0.0442697306681853,-0.0787670695645131
Bungendore,-0.5272015362505417,0.4523164340305302,Australia,AU,New South Wales,,-0.0788456402566911,-0.0765454905341865,-0.5272015362505417,0.4523164340305302,-0.0788456402566911
Latrobe,-1.5245159443902885,0.1326214631810135,Australia,AU,Tasmania,,-0.0788809970681712,-0.0765842258956889,-1.5245159443902885,0.1326214631810135,-0.0788809970681712
Curl Curl,-0.2805706928845281,0.6477354646175464,Australia,AU,New South Wales,,-0.0790852808678339,-0.0768080302065916,-0.2805706928845281,0.6477354646175464,-0.0790852808678339
Beachmere,0.8227419372236898,0.8328765105147707,Australia,AU,Queensland,,-0.0791049235408784,-0.0768295498518707,0.8227419372236898,0.8328765105147707,-0.0791049235408784
Berri,-0.3667493257414039,-0.482642150633656,Australia,AU,South Australia,,-0.0791402803523585,-0.0769328441492104,-0.3667493257414039,-0.482642150633656,-0.0791402803523585
Wellington,-0.0785505521916761,0.3976202318478513,Australia,AU,New South Wales,,-0.0792424222521899,-0.0769801873688244,-0.0785505521916761,0.3976202318478513,-0.0792424222521899
Tenterfield,0.5025192302604288,0.7234418533860413,Australia,AU,New South Wales,,-0.0792856361328877,-0.0770275305884384,0.5025192302604288,0.7234418533860413,-0.0792856361328877
Thirlmere,-0.3526162294789421,0.5702755861691915,Australia,AU,New South Wales,,-0.0793642068250657,-0.0771136091695549,-0.3526162294789421,0.5702755861691915,-0.0793642068250657
Legana,-1.5445184323946917,0.1986836587102691,Australia,AU,Tasmania,,-0.079430991913417,-0.0771867759635038,-1.5445184323946917,0.1986836587102691,-0.079430991913417
Faulconbridge,-0.2676846345275765,0.5677509835578244,Australia,AU,New South Wales,,-0.0794467060518526,-0.0772039916797271,-0.2676846345275765,0.5677509835578244,-0.0794467060518526
The Entrance,-0.2111023679615048,0.6683231235696616,Australia,AU,New South Wales,,-0.0795213482094217,-0.0772857663317877,-0.2111023679615048,0.6683231235696616,-0.0795213482094217
Cobar,0.0960846360961436,0.0700134310572695,Australia,AU,New South Wales,,-0.0795842047631641,-0.0773546291966808,0.0960846360961436,0.0700134310572695,-0.0795842047631641
Wallaroo,-0.3057941129200056,-0.7977738230391934,Australia,AU,South Australia,,-0.0795920618323819,-0.0795453290860937,-0.3057941129200056,-0.7977738230391934,-0.0795920618323819
Moruya,-0.6374064327536045,0.5188117203843294,Australia,AU,New South Wales,,-0.0796156330400353,-0.0773890606291274,-0.6374064327536045,0.5188117203843294,-0.0796156330400353
Gerringong,-0.4440656758831131,0.5984370529554052,Australia,AU,New South Wales,,-0.0796784895937777,-0.0774579234940205,-0.4440656758831131,0.5984370529554052,-0.0796784895937777
Sandstone Point,0.8320198992406951,0.8402179281503376,Australia,AU,Queensland,,-0.0797059893360399,-0.0774880509974113,0.8320198992406951,0.8402179281503376,-0.0797059893360399
Tambourine,0.6976723488869305,0.8409256619367874,Australia,AU,Queensland,,-0.07974134614752,-0.0775267863589137,0.6976723488869305,0.8409256619367874,-0.07974134614752
Margate,-1.8209784224605388,0.2210459337239271,Australia,AU,Tasmania,,-0.079859202185787,-0.0776559042305883,-1.8209784224605388,0.2210459337239271,-0.079859202185787
Trafalgar,-1.0179857743436198,0.1036149411273954,Australia,AU,Victoria,,-0.0798906304626582,-0.0776903356630349,-1.0179857743436198,0.1036149411273954,-0.0798906304626582
Somerset,-1.4918601784379617,0.070161315729067,Australia,AU,Tasmania,,-0.0799259872741383,-0.0777290710245373,-1.4918601784379617,0.070161315729067,-0.0799259872741383
Marian,1.8177285412731483,0.3986554245504186,Australia,AU,Queensland,,-0.0799259872741383,-0.0777290710245373,1.8177285412731483,0.3986554245504186,-0.0799259872741383
Weipa,3.2357935387324503,-0.3488382122311819,Australia,AU,Queensland,,-0.0799417014125739,-0.0777462867407605,3.2357935387324503,-0.3488382122311819,-0.0799417014125739
Kerang,-0.6050832102427491,-0.1322927999590841,Australia,AU,Victoria,,-0.0799652726202273,-0.0777721103150955,-0.6050832102427491,-0.1322927999590841,-0.0799652726202273
Westbrook,0.7444944654458658,0.7039527662815538,Australia,AU,Queensland,,-0.0799967008970985,-0.077806541747542,0.7444944654458658,0.7039527662815538,-0.0799967008970985
Smithton,-1.457608203966582,-0.0051859245507815,Australia,AU,Tasmania,,-0.0800124150355341,-0.0778237574637653,-1.457608203966582,-0.0051859245507815,-0.0800124150355341
Longford,-1.5826112836150468,0.2062891561168992,Australia,AU,Tasmania,,-0.0800831286584943,-0.0779012281867701,-1.5826112836150468,0.2062891561168992,-0.0800831286584943
Karana Downs,0.7528080514826089,0.8078628745996339,Australia,AU,Queensland,,-0.0800870571931032,-0.0779055321158259,0.7528080514826089,0.8078628745996339,-0.0800870571931032
Beechworth,-0.7119460451590415,0.1603287127610008,Australia,AU,Victoria,,-0.0800988427969299,-0.0779184439029934,-0.7119460451590415,0.1603287127610008,-0.0800988427969299
Penguin,-1.5029505022109777,0.0952488939801011,Australia,AU,Tasmania,,-0.0801381281430188,-0.0779614831935516,-1.5029505022109777,0.0952488939801011,-0.0801381281430188
Anna Bay,-0.1170757098859431,0.7304769384871732,Australia,AU,New South Wales,,-0.0801499137468455,-0.0779743949807191,-0.1170757098859431,0.7304769384871732,-0.0801499137468455
Loxton,-0.3951152812987706,-0.4861385668025362,Australia,AU,South Australia,,-0.0801813420237167,-0.0780088264131656,-0.3951152812987706,-0.4861385668025362,-0.0801813420237167
Pearcedale,-1.0184845895058243,0.0065392172844384,Australia,AU,Victoria,,-0.080248127112068,-0.0780819932071146,-1.0184845895058243,0.0065392172844384,-0.080248127112068
Landsborough,0.8759987693750645,0.8235492130008063,Australia,AU,Queensland,,-0.0802834839235481,-0.078120728568617,0.8759987693750645,0.8235492130008063,-0.0802834839235481
Laidley,0.7392901605868651,0.7631594509539976,Australia,AU,Queensland,,-0.0802991980619837,-0.0781379442848403,0.7392901605868651,0.7631594509539976,-0.0802991980619837
Wonga Park,-0.9413345110848498,0.0103419659877534,Australia,AU,Victoria,,-0.0803463404772905,-0.0781895914335101,-0.9413345110848498,0.0103419659877534,-0.0803463404772905
Peregian Beach,0.930552520948171,0.8373341770503241,Australia,AU,Queensland,,-0.080365983150335,-0.0782111110787892,0.930552520948171,0.8373341770503241,-0.080365983150335
Cooroy,0.9412604197634962,0.8178873427092053,Australia,AU,Queensland,,-0.080365983150335,-0.0782111110787892,0.9412604197634962,0.8178873427092053,-0.080365983150335
Bellingen,0.2709027232767726,0.816746518098212,Australia,AU,New South Wales,,-0.0804131255656418,-0.0782627582274591,0.2709027232767726,0.816746518098212,-0.0804131255656418
Riddell,-0.8960587215287491,-0.0513470685326888,Australia,AU,Victoria,,-0.0805152674654732,-0.0783746603829104,-0.8960587215287491,-0.0513470685326888,-0.0805152674654732
Suffolk Park,0.5618782345627726,0.8924529068667038,Australia,AU,New South Wales,,-0.0805270530692999,-0.0783875721700779,0.5618782345627726,0.8924529068667038,-0.0805270530692999
Buninyong,-0.9265862094556686,-0.1357575265554356,Australia,AU,Victoria,,-0.0806684803152202,-0.0785425136160874,-0.9265862094556686,-0.1357575265554356,-0.0806684803152202
Weston,-0.1218310810989596,0.6641084104234858,Australia,AU,New South Wales,,-0.0807509795420071,-0.0786328961262597,-0.1218310810989596,0.6641084104234858,-0.0807509795420071
Katanning,-0.2682333312060021,-2.916897790724804,Australia,AU,Western Australia,,-0.0807745507496605,-0.0786587197005946,-0.2682333312060021,-2.916897790724804,-0.0807745507496605
Bellbrae,-1.040149794717576,-0.0918040894596206,Australia,AU,Victoria,,-0.0807902648880961,-0.0908044074961215,-1.040149794717576,-0.0918040894596206,-0.0807902648880961
Sawtell,0.2847531576139864,0.8378728997832936,Australia,AU,New South Wales,,-0.080794193422705,-0.0786802393458737,0.2847531576139864,0.8378728997832936,-0.080794193422705
Silverdale,-0.3055114509947564,0.5746698735596875,Australia,AU,New South Wales,,-0.080794193422705,-0.0786802393458737,-0.3055114509947564,0.5746698735596875,-0.080794193422705
Tallebudgera,0.6532279179345029,0.8713476515633078,Australia,AU,Queensland,,-0.0808531214418385,-0.078744798281711,0.6532279179345029,0.8713476515633078,-0.0808531214418385
Bay View,-0.2629791448307799,0.6461509859911666,Australia,AU,New South Wales,,-0.0810377625684567,-0.0789470829473346,-0.2629791448307799,0.6461509859911666,-0.0810377625684567
Portarlington,-1.004135340006406,-0.0548329215107262,Australia,AU,Victoria,,-0.0810416911030656,-0.0789513868763904,-1.004135340006406,-0.0548329215107262,-0.0810416911030656
Nanango,0.8996758624077085,0.7215616054160695,Australia,AU,Queensland,,-0.0811202617952436,-0.0790374654575069,0.8996758624077085,0.7215616054160695,-0.0811202617952436
Logan Village,0.7167769695993654,0.8377567046840249,Australia,AU,Queensland,,-0.0811713327451593,-0.0790934165352325,0.7167769695993654,0.8377567046840249,-0.0811713327451593
Glass House Mountains,0.8608846699602664,0.818394375869646,Australia,AU,Queensland,,-0.0812106180912483,-0.0791364558257907,0.8608846699602664,0.818394375869646,-0.0812106180912483
Sussex Inlet,-0.5067002330839337,0.5677192939852956,Australia,AU,New South Wales,,-0.0812145466258572,-0.0791407597548465,-0.5067002330839337,0.5677192939852956,-0.0812145466258572
Proserpine,1.941368192811588,0.3604483632729478,Australia,AU,Queensland,,-0.0812656175757729,-0.0791967108325722,1.941368192811588,0.3604483632729478,-0.0812656175757729
Merimbula,-0.8015498754630557,0.4998507928219685,Australia,AU,New South Wales,,-0.0813363311987331,-0.079274181555577,-0.8015498754630557,0.4998507928219685,-0.0813363311987331
Scarness,1.1296961608723095,0.8113487275776712,Australia,AU,Queensland,,-0.0814345445639555,-0.0793817797819725,1.1296961608723095,0.8113487275776712,-0.0814345445639555
Port Douglas,2.592870676166979,0.0312782102376721,Australia,AU,Queensland,,-0.081493472583089,-0.0794463387178098,2.592870676166979,0.0312782102376721,-0.081493472583089
Gosford,-0.2237556459094269,0.6519924305270908,Australia,AU,New South Wales,,-0.0815131152561335,-0.0794678583630889,-0.2237556459094269,0.6519924305270908,-0.0815131152561335
Bridgewater,-0.4886431242121278,-0.6761598068690147,Australia,AU,South Australia,,-0.0815170437907424,-0.0794721622921448,-0.4886431242121278,-0.6761598068690147,-0.0815170437907424
Lake Cathie,0.0880038304684295,0.81146492267694,Australia,AU,New South Wales,,-0.081532757929178,-0.0794893780083681,0.0880038304684295,0.81146492267694,-0.081532757929178
Condobolin,-0.1681045009794706,0.2091834704077556,Australia,AU,New South Wales,,-0.0815641862060492,-0.0795238094408146,-0.1681045009794706,0.2091834704077556,-0.0815641862060492
Paynesville,-0.970880995859434,0.269108452057492,Australia,AU,Victoria,,-0.0815877574137026,-0.0795496330151496,-0.970880995859434,0.269108452057492,-0.0815877574137026
Woodford,0.854100783754284,0.8025707159875191,Australia,AU,Queensland,,-0.0816741851750984,-0.0796443194543776,0.854100783754284,0.8025707159875191,-0.0816741851750984
Maddingley,-0.9325886185741966,-0.0776916664939851,Australia,AU,Victoria,,-0.0816938278481429,-0.0796658390996567,-0.9325886185741966,-0.0776916664939851,-0.0816938278481429
Hurstbridge,-0.924690711839291,0.0027364685811233,Australia,AU,Victoria,,-0.0817056134519696,-0.0796787508868242,-0.924690711839291,0.0027364685811233,-0.0817056134519696
Quirindi,0.0946879536419712,0.5821274862945232,Australia,AU,New South Wales,,-0.081729184659623,-0.0797045744611591,0.0946879536419712,0.5821274862945232,-0.081729184659623
Maleny,0.884495254304616,0.8114860490586258,Australia,AU,Queensland,,-0.0817409702634497,-0.0797174862483266,0.884495254304616,0.8114860490586258,-0.0817409702634497
Calliope,1.3420584025948692,0.636929320385628,Australia,AU,Queensland,,-0.0817527558672764,-0.079730398035494,1.3420584025948692,0.636929320385628,-0.0817527558672764
Corrimal,-0.3824121218346276,0.6066023994766906,Australia,AU,New South Wales,,-0.08188239750937,-0.0798724276943361,-0.3824121218346276,0.6066023994766906,-0.08188239750937
Walkerston,1.8151513296017583,0.4109087259277681,Australia,AU,Queensland,,-0.0818902545785878,-0.0798810355524478,1.8151513296017583,0.4109087259277681,-0.0818902545785878
Blayney,-0.2420455351902611,0.4310738572461797,Australia,AU,New South Wales,,-0.0819884679438103,-0.0799886337788433,-0.2420455351902611,0.4310738572461797,-0.0819884679438103
Camperdown,-1.02352262264409,-0.2132807841488479,Australia,AU,Victoria,,-0.0820238247552904,-0.0800273691403457,-1.02352262264409,-0.2132807841488479,-0.0820238247552904
Aldgate,-0.4884602253193204,-0.679540027938629,Australia,AU,South Australia,,-0.0820552530321616,-0.0800618005727922,-0.4884602253193204,-0.679540027938629,-0.0820552530321616
Port Fairy,-1.0457032701901203,-0.3101135546024244,Australia,AU,Victoria,,-0.0821377522589485,-0.0801521830829645,-1.0457032701901203,-0.3101135546024244,-0.0821377522589485
Tyabb,-1.027795805866976,0.0021026771305708,Australia,AU,Victoria,,-0.0821456093281663,-0.0801607909410761,-1.027795805866976,0.0021026771305708,-0.0821456093281663
Lowood,0.7666584858198227,0.7831766976006147,Australia,AU,Queensland,,-0.0821534663973841,-0.0801693987991878,0.7666584858198227,0.7831766976006147,-0.0821534663973841
Charleville,0.9437544955745192,0.11294223864136,Australia,AU,Queensland,,-0.082157394931993,-0.0801737027282436,0.9437544955745192,0.11294223864136,-0.082157394931993
Derby,2.4561620673787794,-2.27480367217008,Australia,AU,Western Australia,,-0.082196680278082,-0.0802167420188018,2.4561620673787794,-2.27480367217008,-0.082196680278082
Mooloolah,0.8837470315613091,0.8233168228022717,Australia,AU,Queensland,,-0.0822123944165175,-0.0802339577350251,0.8837470315613091,0.8233168228022717,-0.0822123944165175
Pittsworth,0.7250905556361084,0.6828263845964692,Australia,AU,Queensland,,-0.0823184648509578,-0.0803501638195322,0.7250905556361084,0.6828263845964692,-0.0823184648509578
Vincentia,-0.4985196644237789,0.5815148212256565,Australia,AU,New South Wales,,-0.0823341789893934,-0.0803673795357555,-0.4985196644237789,0.5815148212256565,-0.0823341789893934
Coonabarabran,0.1351086089526146,0.4329541052161514,Australia,AU,New South Wales,,-0.0823341789893934,-0.0803673795357555,0.1351086089526146,0.4329541052161514,-0.0823341789893934
Euroa,-0.7768917792780765,0.042031538515379,Australia,AU,Victoria,,-0.0823931070085269,-0.0804319384715929,-0.7768917792780765,0.042031538515379,-0.0823931070085269
Oberon,-0.2725397687730349,0.4962170551721337,Australia,AU,New South Wales,,-0.082467749166096,-0.0805137131236534,-0.2725397687730349,0.4962170551721337,-0.082467749166096
Woombye,0.8996758624077085,0.8237076608634467,Australia,AU,Queensland,,-0.082507034512185,-0.0805567524142117,0.8996758624077085,0.8237076608634467,-0.082507034512185
Nhulunbuy,3.3079887198755262,-0.8859553401927296,Australia,AU,Northern Territory,,-0.0825306057198384,-0.0805825759885466,3.3079887198755262,-0.8859553401927296,-0.0825306057198384
Camden,-0.3286897288651959,0.583796470447643,Australia,AU,New South Wales,,-0.0825698910659274,-0.0806256152791048,-0.3286897288651959,0.583796470447643,-0.0825698910659274
Murrumbateman,-0.4796810784645192,0.4074228729497309,Australia,AU,New South Wales,,-0.0826131049466253,-0.0806729584987188,-0.4796810784645192,0.4074228729497309,-0.0826131049466253
Fernvale,0.7694352235560948,0.7902223458925896,Australia,AU,Queensland,,-0.0826523902927142,-0.080715997789277,0.7694352235560948,0.7902223458925896,-0.0826523902927142
East Hills,-0.3124449817493998,0.6142818392192179,Australia,AU,New South Wales,,-0.0826641758965409,-0.0807289095764445,-0.3124449817493998,0.6142818392192179,-0.0826641758965409
Bohle Plains,2.122288452143186,0.1608568723031274,Australia,AU,Queensland,,-0.0826681044311498,-0.0807332135055003,2.122288452143186,0.1608568723031274,-0.0826681044311498
Junortoun,-0.7796685170143487,-0.0865224940383517,Australia,AU,Victoria,,-0.0826838185695854,-0.0807504292217236,-0.7796685170143487,-0.0865224940383517,-0.0826838185695854
Myrtleford,-0.7436374351311046,0.1635082332046062,Australia,AU,Victoria,,-0.0827152468464566,-0.0807848606541702,-0.7436374351311046,0.1635082332046062,-0.0827152468464566
Crib Point,-1.0450880648234009,0.0034758919401017,Australia,AU,Victoria,,-0.0827545321925456,-0.0808278999447284,-1.0450880648234009,0.0034758919401017,-0.0827545321925456
Marcoola,0.9135429239169952,0.8359609622407932,Australia,AU,Queensland,,-0.0827938175386346,-0.0808709392352866,0.9135429239169952,0.8359609622407932,-0.0827938175386346
Mullumbimby,0.5865363307477517,0.8800094680541912,Australia,AU,New South Wales,,-0.0827977460732435,-0.0808752431643424,0.5865363307477517,0.8800094680541912,-0.0827977460732435
Creswick,-0.8905052460562048,-0.134056852829787,Australia,AU,Victoria,,-0.0828056031424613,-0.0808838510224541,-0.8905052460562048,-0.134056852829787,-0.0828056031424613
Clare,-0.2919270514107189,-0.693905967484485,Australia,AU,South Australia,,-0.0828448884885503,-0.0809268903130123,-0.2919270514107189,-0.693905967484485,-0.0828448884885503
Tura Beach,-0.7932362894263133,0.5024915905326015,Australia,AU,New South Wales,,-0.0828527455577681,-0.0809354981711239,-0.7932362894263133,0.5024915905326015,-0.0828527455577681
Eden,-0.8292673713095562,0.4998507928219685,Australia,AU,New South Wales,,-0.0828802453000304,-0.0809656256745147,-0.8292673713095562,0.4998507928219685,-0.0828802453000304
West Wyalong,-0.3057941129200056,0.2162924978447848,Australia,AU,New South Wales,,-0.0829195306461194,-0.0810086649650729,-0.3057941129200056,0.2162924978447848,-0.0829195306461194
Gilgandra,0.062780410432952,0.3694587650616346,Australia,AU,New South Wales,,-0.0829784586652529,-0.0810732239009102,0.062780410432952,0.3694587650616346,-0.0829784586652529
Yunderup,-0.0840874004921475,-3.1023134795839344,Australia,AU,Western Australia,,-0.0830256010805597,-0.08112487104958,-0.0840874004921475,-3.1023134795839344,-0.0830256010805597
Rochester,-0.7131598287204061,-0.0495513260894572,Australia,AU,Victoria,,-0.0830295296151686,-0.0811291749786358,-0.7131598287204061,-0.0495513260894572,-0.0830295296151686
McLaren Vale,-0.522462792209598,-0.7001276868907412,Australia,AU,South Australia,,-0.0830963147035198,-0.0812023417725848,-0.522462792209598,-0.7001276868907412,-0.0830963147035198
Miners Rest,-0.8992677657389309,-0.1491622157346214,Australia,AU,Victoria,,-0.0831002432381287,-0.0812066457016406,-0.8992677657389309,-0.1491622157346214,-0.0831002432381287
Robinvale,-0.4166308419618618,-0.2537694946483113,Australia,AU,Victoria,,-0.083127742980391,-0.0812367732050314,-0.4166308419618618,-0.2537694946483113,-0.083127742980391
Wilton,-0.3595497602335855,0.5843563195622983,Australia,AU,New South Wales,,-0.0831591712572622,-0.0812712046374779,-0.3595497602335855,0.5843563195622983,-0.0831591712572622
Riverview,0.7444944654458658,0.8113487275776712,Australia,AU,Queensland,,-0.0831866709995245,-0.0813013321408687,0.7444944654458658,0.8113487275776712,-0.0831866709995245
Bogangar,0.6228334473841709,0.886284003414662,Australia,AU,New South Wales,,-0.0832377419494402,-0.0813572832185944,0.6228334473841709,0.886284003414662,-0.0832377419494402
Shoalhaven Heads,-0.4609755098818482,0.5886449750443714,Australia,AU,New South Wales,,-0.0832416704840491,-0.0813615871476502,-0.4609755098818482,0.5886449750443714,-0.0832416704840491
Saint George,0.6719501136892478,0.3602687890286247,Australia,AU,Queensland,,-0.083284884364747,-0.0814089303672642,0.6719501136892478,0.3602687890286247,-0.083284884364747
Little Hampton,-0.4942298540288189,-0.6674979903781313,Australia,AU,South Australia,,-0.0833005985031826,-0.0814261460834875,-0.4942298540288189,-0.6674979903781313,-0.0833005985031826
Clermont,1.5387744753962784,0.2608269104369378,Australia,AU,Queensland,,-0.0833516694530983,-0.0814820971612132,1.5387744753962784,0.2608269104369378,-0.0833516694530983
Home Hill,2.064509029187823,0.2371231101862775,Australia,AU,Queensland,,-0.0833673835915339,-0.0818134996985114,2.064509029187823,0.2371231101862775,-0.0833673835915339
Central Coast,-0.2232069492310026,0.6476192695182806,Australia,AU,New South Wales,,-0.0833713121261428,-0.0815036168064923,-0.2232069492310026,0.6476192695182806,-0.0833713121261428
Kuranda,2.536953496483846,0.0494152089143144,Australia,AU,Queensland,,-0.083442025749103,-0.0815810875294971,2.536953496483846,0.0494152089143144,-0.083442025749103
Wilberforce,-0.2463852271014408,0.599134223551015,Australia,AU,New South Wales,,-0.0834459542837119,-0.0815853914585529,-0.2463852271014408,0.599134223551015,-0.0834459542837119
Tom Price,1.5602401545431488,-2.891577822275232,Australia,AU,Western Australia,,-0.0834538113529297,-0.0815939993166645,1.5602401545431488,-2.891577822275232,-0.0834538113529297
Urunga,0.2625891372400297,0.8290737618114558,Australia,AU,New South Wales,,-0.0834734540259742,-0.0816155189619436,0.2625891372400297,0.8290737618114558,-0.0834734540259742
Dysart,1.578264009070807,0.3360896451900462,Australia,AU,Queensland,,-0.0835088108374542,-0.081654254323446,1.578264009070807,0.3360896451900462,-0.0835088108374542
Two Rocks,0.0968661131835974,-3.124707444170123,Australia,AU,Western Australia,,-0.0835127393720631,-0.0816585582525018,0.0968661131835974,-3.124707444170123,-0.0835127393720631
Ballan,-0.9182227419027054,-0.0970856848808925,Australia,AU,Victoria,,-0.0835323820451076,-0.0816800778977809,-0.9182227419027054,-0.0970856848808925,-0.0835323820451076
Gloucester,0.0113359400375872,0.7173680186515794,Australia,AU,New South Wales,,-0.0835716673911966,-0.0817231171883391,0.0113359400375872,0.7173680186515794,-0.0835716673911966
Bonny Hills,0.0824503549958853,0.8097008698062341,Australia,AU,New South Wales,,-0.0835873815296322,-0.0817403329045624,0.0824503549958853,0.8097008698062341,-0.0835873815296322
Longreach,1.4358190259172552,-0.0971807535984756,Australia,AU,Queensland,,-0.0835913100642411,-0.0817446368336183,1.4358190259172552,-0.0971807535984756,-0.0835913100642411
Stirling,-0.4862820657776935,-0.6827089851913916,Australia,AU,South Australia,,-0.0836070242026767,-0.0817618525498415,-0.4862820657776935,-0.6827089851913916,-0.0836070242026767
Perth,-1.5788369155543651,0.2115073723931138,Australia,AU,Tasmania,,-0.0836109527372856,-0.0817661564788974,-1.5788369155543651,0.2115073723931138,-0.0836109527372856
Bordertown,-0.7040315112520619,-0.464663599819651,Australia,AU,South Australia,,-0.0836580951525924,-0.0818178036275672,-0.7040315112520619,-0.464663599819651,-0.0836580951525924
Lewiston,-0.4201391752693668,-0.6948144018969437,Australia,AU,South Australia,,-0.0836816663602458,-0.0818436272019021,-0.4201391752693668,-0.6948144018969437,-0.0836816663602458
Waroona,-0.1312088061484061,-3.0899862358706875,Australia,AU,Western Australia,,-0.0837327373101615,-0.0818995782796278,-0.1312088061484061,-3.0899862358706875,-0.0837327373101615
Leschenault,-0.1941093981024019,-3.109179553631586,Australia,AU,Western Australia,,-0.0837405943793793,-0.0819081861377395,-0.1941093981024019,-3.109179553631586,-0.0837405943793793
Terranora,0.6371494425394424,0.8802735478252545,Australia,AU,New South Wales,,-0.0837641655870327,-0.0819340097120744,0.6371494425394424,0.8802735478252545,-0.0837641655870327
Kapunda,-0.3759940334142629,-0.6604523420861564,Australia,AU,South Australia,,-0.0837995223985128,-0.0819727450735768,-0.3759940334142629,-0.6604523420861564,-0.0837995223985128
Woori Yallock,-0.9478191081935096,0.0379118940867862,Australia,AU,Victoria,,-0.0838152365369484,-0.0819899607898001,-0.9478191081935096,0.0379118940867862,-0.0838152365369484
Saint Georges Basin,-0.5075315916876084,0.5765184319571336,Australia,AU,New South Wales,,-0.0838152365369484,-0.0819899607898001,-0.5075315916876084,0.5765184319571336,-0.0838152365369484
Pomona,0.9502557198552516,0.8120247717915953,Australia,AU,Queensland,,-0.0838270221407751,-0.0820028725769675,0.9502557198552516,0.8120247717915953,-0.0838270221407751
Sorell,-1.780025697643543,0.2528200117782928,Australia,AU,Tasmania,,-0.0838388077446018,-0.082015784364135,-1.780025697643543,0.2528200117782928,-0.0838388077446018
Tea Gardens,-0.0979877163455811,0.7383993316190811,Australia,AU,New South Wales,,-0.0839291640406064,-0.0821147747324189,-0.0979877163455811,0.7383993316190811,-0.0839291640406064
Culburra,-0.4750587246280903,0.5899336843271592,Australia,AU,New South Wales,,-0.0839684493866954,-0.0821578140229771,-0.4750587246280903,0.5899336843271592,-0.0839684493866954
Yarra Glen,-0.9263534290466392,0.021422753181581,Australia,AU,Victoria,,-0.0839880920597399,-0.0821793336682562,-0.9263534290466392,0.021422753181581,-0.0839880920597399
Beaconsfield Upper,-0.9840663433137088,0.0259754884347144,Australia,AU,Victoria,,-0.0840195203366111,-0.0822137651007027,-0.9840663433137088,0.0259754884347144,-0.0840195203366111
Morisset,-0.1724940744068712,0.6688618463026311,Australia,AU,New South Wales,,-0.0840352344750467,-0.082230980816926,-0.1724940744068712,0.6688618463026311,-0.0840352344750467
Merredin,0.0990276455531509,-2.840451978597332,Australia,AU,Western Australia,,-0.084062734217309,-0.0822611083203168,0.0990276455531509,-2.840451978597332,-0.084062734217309
Deloraine,-1.572219301069118,0.1581949482108056,Australia,AU,Tasmania,,-0.0840705912865268,-0.0822697161784284,-1.572219301069118,0.1581949482108056,-0.0840705912865268
Evans Head,0.4925928085325578,0.8730800148614851,Australia,AU,New South Wales,,-0.0840745198211357,-0.0822740201074842,0.4925928085325578,0.8730800148614851,-0.0840745198211357
Rosewood,0.7389576171453957,0.783145008028086,Australia,AU,Queensland,,-0.0841255907710514,-0.0823299711852099,0.7389576171453957,0.783145008028086,-0.0841255907710514
Greta,-0.1013630322764985,0.6565346025893843,Australia,AU,New South Wales,,-0.084141304909487,-0.0823471869014332,-0.1013630322764985,0.6565346025893843,-0.084141304909487
Wollongbar,0.5424743247530145,0.8695624723109192,Australia,AU,New South Wales,,-0.0841491619787048,-0.0823557947595448,0.5424743247530145,0.8695624723109192,-0.0841491619787048
Donnybrook,-0.2498104245485791,-3.1002008414154267,Australia,AU,Western Australia,,-0.0841648761171404,-0.0823730104757681,-0.2498104245485791,-3.1002008414154267,-0.0841648761171404
McCrae,-1.0428766509376273,-0.0254566877776189,Australia,AU,Victoria,,-0.0841688046517493,-0.0823773144048239,-1.0428766509376273,-0.0254566877776189,-0.0841688046517493
Angle Vale,-0.4263909919689982,-0.6889412677884907,Australia,AU,South Australia,,-0.0841884473247938,-0.082398834050103,-0.4263909919689982,-0.6889412677884907,-0.0841884473247938
Bridgetown,-0.3127110165025761,-3.066599331345302,Australia,AU,Western Australia,,-0.0842120185324472,-0.082424657624438,-0.3127110165025761,-3.066599331345302,-0.0842120185324472
North Wonthaggi,-1.0844944626375623,0.0455173914934163,Australia,AU,Victoria,,-0.0842355897401006,-0.0824504811987729,-1.0844944626375623,0.0455173914934163,-0.0842355897401006
Heathcote,-0.804609275124577,-0.0495513260894572,Australia,AU,Victoria,,-0.0842866606900163,-0.0825064322764986,-0.804609275124577,-0.0495513260894572,-0.0842866606900163
Howlong,-0.6491452162374852,0.1547830375686656,Australia,AU,New South Wales,,-0.0843495172437586,-0.0825752951413917,-0.6491452162374852,0.1547830375686656,-0.0843495172437586
Williamstown,-0.4313957707631169,-0.6634417250945959,Australia,AU,South Australia,,-0.0844359450051544,-0.0826699815806198,-0.4313957707631169,-0.6634417250945959,-0.0844359450051544
Harvey,-0.1666745641811506,-3.092806607825646,Australia,AU,Western Australia,,-0.0844555876781989,-0.0826915012258989,-0.1666745641811506,-3.092806607825646,-0.0844555876781989
Coonamble,0.1905269734735427,0.3378853876332778,Australia,AU,New South Wales,,-0.0844555876781989,-0.0826915012258989,0.1905269734735427,0.3378853876332778,-0.0844555876781989
Uralla,0.2378312780226092,0.6682808708062901,Australia,AU,New South Wales,,-0.0844830874204612,-0.0827216287292896,0.2378312780226092,0.6682808708062901,-0.0844830874204612
Bundanoon,-0.4286522873709917,0.5419239819478088,Australia,AU,New South Wales,,-0.0845380869049858,-0.0827818837360711,-0.4286522873709917,0.5419239819478088,-0.0845380869049858
Cloncurry,1.8917693385163803,-0.4932053414761968,Australia,AU,Queensland,,-0.0845773722510748,-0.0828249230266293,1.8917693385163803,-0.4932053414761968,-0.0845773722510748
Tolga,2.4698961115114786,0.0327148041922574,Australia,AU,Queensland,,-0.0845813007856837,-0.0828292269556851,2.4698961115114786,0.0327148041922574,-0.0845813007856837
Huonville,-1.821626882171404,0.1969196058395631,Australia,AU,Tasmania,,-0.0845970149241193,-0.0828464426719084,-1.821626882171404,0.1969196058395631,-0.0845970149241193
Merbein,-0.3473620431037199,-0.3294758834168032,Australia,AU,Victoria,,-0.0846009434587282,-0.0828507466009643,-0.3473620431037199,-0.3294758834168032,-0.0846009434587282
Alexandra,-0.8503339983266625,0.0571369014202133,Australia,AU,Victoria,,-0.0846716570816884,-0.082928217323969,-0.8503339983266625,0.0571369014202133,-0.0846716570816884
Waikerie,-0.3473620431037199,-0.547785348559607,Australia,AU,South Australia,,-0.0847148709623863,-0.0829755605435831,-0.3473620431037199,-0.547785348559607,-0.0847148709623863
Point Lonsdale,-1.0318362086808324,-0.0601145169319981,Australia,AU,Victoria,,-0.0847148709623863,-0.0829755605435831,-1.0318362086808324,-0.0601145169319981,-0.0847148709623863
Hill Top,-0.3782553288162564,0.5622369979380177,Australia,AU,New South Wales,,-0.0847541563084752,-0.0830185998341413,-0.3782553288162564,0.5622369979380177,-0.0847541563084752
Stirling North,-0.0730137038912059,-0.7748939516742487,Australia,AU,South Australia,,-0.0847580848430841,-0.0830229037631971,-0.0730137038912059,-0.7748939516742487,-0.0847580848430841
Hahndorf,-0.4909543011303422,-0.6719767832953675,Australia,AU,South Australia,,-0.0847698704469108,-0.0830358155503646,-0.4909543011303422,-0.6719767832953675,-0.0847698704469108
Berry,-0.4496191513556574,0.5843563195622983,Australia,AU,New South Wales,,-0.0847816560507375,-0.083048727337532,-0.4496191513556574,0.5843563195622983,-0.0847816560507375
Burnett Heads,1.2155921318039369,0.7638143687862359,Australia,AU,Queensland,,-0.0848248699314354,-0.083096070557146,1.2155921318039369,0.7638143687862359,-0.0848248699314354
Moore Park,1.2248867209930154,0.7467865051480582,Australia,AU,Queensland,,-0.0848484411390888,-0.083121894131481,1.2248867209930154,0.7467865051480582,-0.0848484411390888
Burradoo,-0.4032958499589266,0.5534906759203914,Australia,AU,New South Wales,,-0.0848680838121333,-0.0831434137767601,-0.4032958499589266,0.5534906759203914,-0.0848680838121333
Mannum,-0.4717997989016876,-0.6194988511896238,Australia,AU,South Australia,,-0.0848720123467422,-0.0831477177058159,-0.4717997989016876,-0.6194988511896238,-0.0848720123467422
Wooroloo,0.0456544231972615,-3.048018678653272,Australia,AU,Western Australia,,-0.08487986941596,-0.0831563255639275,0.0456544231972615,-3.048018678653272,-0.08487986941596
Crookwell,-0.3955808421168283,0.4540804869012361,Australia,AU,New South Wales,,-0.0848837979505689,-0.0831606294929834,-0.3955808421168283,0.4540804869012361,-0.0848837979505689
Appin,-0.354012911933114,0.5931554575341362,Australia,AU,New South Wales,,-0.0849152262274401,-0.0831950609254299,-0.354012911933114,0.5931554575341362,-0.0849152262274401
Cooloola Cove,1.0137715171759674,0.826601975154303,Australia,AU,Queensland,,-0.0849152262274401,-0.0831950609254299,1.0137715171759674,0.826601975154303,-0.0849152262274401
Cooktown,2.761536709680417,0.0087046714071592,Australia,AU,Queensland,,-0.0849230832966579,-0.0832036687835416,2.761536709680417,0.0087046714071592,-0.0849230832966579
Jindabyne,-0.7211907528318993,0.3642933647396315,Australia,AU,New South Wales,,-0.0849309403658757,-0.0832122766416532,-0.7211907528318993,0.3642933647396315,-0.0849309403658757
Maclean,0.4357777615574567,0.8484360906258345,Australia,AU,New South Wales,,-0.0849348689004846,-0.083216580570709,0.4357777615574567,0.8484360906258345,-0.0849348689004846
Stratford,-0.9791945818961776,0.2021695116883064,Australia,AU,Victoria,,-0.0849780827811825,-0.0832639237903231,-0.9791945818961776,0.2021695116883064,-0.0849780827811825
Lawson,-0.2727226676658422,0.5559518993867041,Australia,AU,New South Wales,,-0.0849898683850092,-0.0832768355774905,-0.2727226676658422,0.5559518993867041,-0.0849898683850092
Thursday Island,3.5746220512459423,-0.3115184589844841,Australia,AU,Queensland,,-0.0850055825234448,-0.0832940512937138,3.5746220512459423,-0.3115184589844841,-0.0850055825234448
Woodside,-0.4781181242896116,-0.6649416981942354,Australia,AU,South Australia,,-0.0850134395926626,-0.0833026591518255,-0.4781181242896116,-0.6649416981942354,-0.0850134395926626
Narooma,-0.6854423328739055,0.5243785219583474,Australia,AU,New South Wales,,-0.0850252251964893,-0.0833155709389929,-0.6854423328739055,0.5243785219583474,-0.0850252251964893
Macksville,0.2261423760549488,0.8184471918238605,Australia,AU,New South Wales,,-0.0850527249387516,-0.0833456984423837,0.2261423760549488,0.8184471918238605,-0.0850527249387516
Molong,-0.1696840823264521,0.3894654485174088,Australia,AU,New South Wales,,-0.0851352241655385,-0.0834360809525559,-0.1696840823264521,0.3894654485174088,-0.0851352241655385
Grenfell,-0.304630210874862,0.3196321938573667,Australia,AU,New South Wales,,-0.085150938303974,-0.0834532966687792,-0.304630210874862,0.3196321938573667,-0.085150938303974
Yarrabah Aboriginal Community,2.522038923133929,0.074069696340805,Australia,AU,Queensland,,-0.0852059377884986,-0.0835135516755607,2.522038923133929,0.074069696340805,-0.0852059377884986
Denmark,-0.4792653991626824,-2.938256562608423,Australia,AU,Western Australia,,-0.0852098663231075,-0.0835178556046165,-0.4792653991626824,-2.938256562608423,-0.0852098663231075
Bonville,0.2817103851245385,0.8324751092627559,Australia,AU,New South Wales,,-0.0852255804615431,-0.0835350713208398,0.2817103851245385,0.8324751092627559,-0.0852255804615431
Walcha,0.181947352683624,0.6793088420459031,Australia,AU,New South Wales,,-0.085229508996152,-0.0835393752498956,0.181947352683624,0.6793088420459031,-0.085229508996152
Manilla,0.2210212070563154,0.5861203724330043,Australia,AU,New South Wales,,-0.0852412945999787,-0.0835522870370631,0.2210212070563154,0.5861203724330043,-0.0852412945999787
Yarra Junction,-0.947985379914245,0.0461511829439688,Australia,AU,Victoria,,-0.0852452231345876,-0.0835565909661189,-0.947985379914245,0.0461511829439688,-0.0852452231345876
Daylesford,-0.8766548117189911,-0.1076488757234334,Australia,AU,Victoria,,-0.0852491516691965,-0.0835608948951747,-0.8766548117189911,-0.1076488757234334,-0.0852491516691965
York,0.0314714454185781,-2.999998413083077,Australia,AU,Western Australia,,-0.0852491516691965,-0.0836168459729004,0.0314714454185781,-2.999998413083077,-0.0852491516691965
Anglesea,-1.0523042575032937,-0.1037510583025353,Australia,AU,Victoria,,-0.0852609372730232,-0.0835738066823422,-1.0523042575032937,-0.1037510583025353,-0.0852609372730232
Kambalda,0.1459162708003806,-2.4822541771267512,Australia,AU,Western Australia,,-0.0852845084806766,-0.0835996302566771,0.1459162708003806,-2.4822541771267512,-0.0852845084806766
Lobethal,-0.4692890959185906,-0.6657339375074254,Australia,AU,South Australia,,-0.0853316508959834,-0.083651277405347,-0.4692890959185906,-0.6657339375074254,-0.0853316508959834
The Oaks,-0.3332289468412569,0.5702755861691915,Australia,AU,New South Wales,,-0.0853395079652012,-0.0836598852634586,-0.3332289468412569,0.5702755861691915,-0.0853395079652012
Gulgong,-0.0477902838557283,0.4611155720023681,Australia,AU,New South Wales,,-0.0853552221036368,-0.0836771009796819,-0.0477902838557283,0.4611155720023681,-0.0853552221036368
Finley,-0.5909501139802862,0.0421160440421191,Australia,AU,New South Wales,,-0.0853630791728546,-0.0836857088377935,-0.5909501139802862,0.0421160440421191,-0.0853630791728546
Capel,-0.2459861749716781,-3.12660881852178,Australia,AU,Western Australia,,-0.0854023645189436,-0.0837287481283517,-0.2459861749716781,-3.12660881852178,-0.0854023645189436
Korora,0.3038245239822744,0.8394045624554619,Australia,AU,New South Wales,,-0.0854848637457305,-0.083819130638524,0.3038245239822744,0.8394045624554619,-0.0854848637457305
Exmouth,1.686739679678228,-3.2789194672803843,Australia,AU,Western Australia,,-0.0854927208149483,-0.0838277384966356,1.686739679678228,-3.2789194672803843,-0.0854927208149483
Boonah,0.6780356586681436,0.7935603141988323,Australia,AU,Queensland,,-0.0855005778841661,-0.0838363463547473,0.6780356586681436,0.7935603141988323,-0.0855005778841661
Saint Leonards,-1.0124489260431484,-0.0477872732187513,Australia,AU,Victoria,,-0.0855162920226017,-0.0838535620709705,-1.0124489260431484,-0.0477872732187513,-0.0855162920226017
Vasse,-0.2681003138294133,-3.155129433796642,Australia,AU,Western Australia,,-0.0855202205572106,-0.0838578660000264,-0.2681003138294133,-3.155129433796642,-0.0855202205572106
Aberdare,-0.1272349120228422,0.6561015117648408,Australia,AU,New South Wales,,-0.085543791764864,-0.0838836895743613,-0.1272349120228422,0.6561015117648408,-0.085543791764864
Bunyip,-0.9985818645338618,0.0578763247791917,Australia,AU,Victoria,,-0.0855634344379085,-0.0839052092196404,-0.9985818645338618,0.0578763247791917,-0.0855634344379085
Dodges Ferry,-1.7917977354715715,0.2588304673677002,Australia,AU,Tasmania,,-0.0855673629725174,-0.0839095131486962,-1.7917977354715715,0.2588304673677002,-0.0855673629725174
Palm Island,2.218576405620742,0.148973282605267,Australia,AU,Queensland,,-0.0856145053878241,-0.0839611602973661,2.218576405620742,0.148973282605267,-0.0856145053878241
Cohuna,-0.6189336445799618,-0.1023672803021645,Australia,AU,Victoria,,-0.0857205758222644,-0.0840773663818732,-0.6189336445799618,-0.1023672803021645,-0.0857205758222644
Bright,-0.7727349862597054,0.1894936826772562,Australia,AU,Victoria,,-0.0858070035836602,-0.0841720528211013,-0.7727349862597054,0.1894936826772562,-0.0858070035836602
Hay,-0.4024977456993988,-0.0353543975970816,Australia,AU,New South Wales,,-0.0858070035836602,-0.0841720528211013,-0.4024977456993988,-0.0353543975970816,-0.0858070035836602
Launching Place,-0.9482514146674202,0.0421688599963306,Australia,AU,Victoria,,-0.085854145998967,-0.0842236999697711,-0.9482514146674202,0.0421688599963306,-0.085854145998967
Tully,2.3517933082735096,0.0807245065716078,Australia,AU,Queensland,,-0.0858698601374026,-0.0842409156859944,2.3517933082735096,0.0807245065716078,-0.0858698601374026
Huntly,-0.7627420558435407,-0.088740764115284,Australia,AU,Victoria,,-0.0859130740181005,-0.0842882589056085,-0.7627420558435407,-0.088740764115284,-0.0859130740181005
Rutherglen,-0.6614326963997914,0.1366249125103375,Australia,AU,Victoria,,-0.0859170025527094,-0.0842925628346643,-0.6614326963997914,0.1366249125103375,-0.0859170025527094
Murgon,0.9717380261741954,0.7162800099947976,Australia,AU,Queensland,,-0.0859170025527094,-0.0842925628346643,0.9717380261741954,0.7162800099947976,-0.0859170025527094
Scottsdale,-1.5112640882477195,0.2479820703724073,Australia,AU,Tasmania,,-0.0859366452257539,-0.0843140824799434,-1.5112640882477195,0.2479820703724073,-0.0859366452257539
Baranduda,-0.6828983755466617,0.189314108432933,Australia,AU,Victoria,,-0.0859484308295805,-0.0843269942671108,-0.6828983755466617,0.189314108432933,-0.0859484308295805
Moore,0.1826789482548575,0.6021130433686115,Australia,AU,New South Wales,,-0.0859562878987983,-0.0843356021252225,0.1826789482548575,0.6021130433686115,-0.0859562878987983
Goolwa,-0.5690521283595051,-0.6762971283499692,Australia,AU,South Australia,,-0.0860270015217585,-0.0844130728482273,-0.5690521283595051,-0.6762971283499692,-0.0860270015217585
Gembrook,-0.9764178441599056,0.0392851088963171,Australia,AU,Victoria,,-0.0860270015217585,-0.0844130728482273,-0.9764178441599056,0.0392851088963171,-0.0860270015217585
Port Moonta,-0.3279581332939618,-0.8030237288879367,Australia,AU,South Australia,,-0.0860505727294119,-0.0844388964225622,-0.3279581332939618,-0.8030237288879367,-0.0860505727294119
Warracknabeal,-0.6937559189106479,-0.2907089730246771,Australia,AU,Victoria,,-0.0860662868678475,-0.0844561121387855,-0.6937559189106479,-0.2907089730246771,-0.0860662868678475
Abermain,-0.1213156387646821,0.6610873378425207,Australia,AU,New South Wales,,-0.0860780724716742,-0.0844690239259529,-0.1213156387646821,0.6610873378425207,-0.0860780724716742
Beveridge,-0.8988188320929472,-0.0196258064325346,Australia,AU,Victoria,,-0.0861055722139365,-0.0844991514293437,-0.8988188320929472,-0.0196258064325346,-0.0861055722139365
Willunga,-0.5314747194734276,-0.6988178512262646,Australia,AU,South Australia,,-0.0861919999753323,-0.0845938378685718,-0.5314747194734276,-0.6988178512262646,-0.0861919999753323
Maningrida,3.330019722872894,-1.1568906221130746,Australia,AU,Northern Territory,,-0.0861919999753323,-0.0845938378685718,3.330019722872894,-1.1568906221130746,-0.0861919999753323
Innes Park,1.199064722762892,0.7723071742236389,Australia,AU,Queensland,,-0.0862155711829857,-0.0846196614429067,1.199064722762892,0.7723071742236389,-0.0862155711829857
Tara,0.7982667399315192,0.55859269709734,Australia,AU,Queensland,,-0.0862352138560302,-0.0846411810881858,0.7982667399315192,0.55859269709734,-0.0862352138560302
Wickham,1.8959261315347515,-2.9607350327213515,Australia,AU,Western Australia,,-0.086243070925248,-0.0846497889462974,1.8959261315347515,-2.9607350327213515,-0.086243070925248
Terang,-1.02352262264409,-0.2361712187046355,Australia,AU,Victoria,,-0.0862705706675103,-0.0846799164496882,-1.02352262264409,-0.2361712187046355,-0.0862705706675103
