city,lat,lng,country,iso2,admin_name,capital,population,population_proper,x,y,z,cluster
Sydney,-0.2971978649580147,0.6380490186149377,Australia,AU,New South Wales,admin,20.773757135760366,20.7390716814777,33.686017917284985,-12.670843816053468,1.0947438193975836,2
Melbourne,-0.9537383814516714,-0.0217595709827277,Australia,AU,Victoria,admin,19.854597893316253,19.40011935221179,31.960836209197804,-11.884815347615667,-0.24642732805837306,2
Brisbane,0.7664755869270135,0.8301617704682397,Australia,AU,Queensland,admin,9.781799799287594,10.063782512510592,16.922278489543906,-4.329803574875029,1.9996142616941408,4
Perth,0.02084668246362,-3.0960917601776745,Australia,AU,Western Australia,admin,7.995495112621192,8.682044824500766,15.353256600705533,-0.4135675333482368,-2.325578454501284,4
Adelaide,-0.4740943486478287,-0.693789772385214,Australia,AU,South Australia,admin,5.191672462507674,5.482133826504638,9.7139546599931,-1.0730328029528882,-0.8812999436171243,4
Gold Coast,0.6752090394156505,0.8694462772116525,Australia,AU,Queensland,,2.572714865485118,2.651766785099412,4.214963839145928,-1.643799212684223,1.6109987278242461,1
Canberra,-0.5346505093394642,0.418070569319014,Australia,AU,Australian Capital Territory,primary,1.5810623739029914,1.5473699815176332,2.11760869754201,-2.0365650825465607,-0.159093324434121,0
Newcastle,-0.1395223921851491,0.695153628309718,Australia,AU,New South Wales,,1.1708212188340987,0.5639049765463123,1.043281259068771,-1.5915310167834027,0.4900644859327223,0
Wollongong,-0.3916568295074872,0.6035813268957276,Australia,AU,New South Wales,,1.09406158111082,1.1503239182600349,1.3700228514820887,-1.8244571007753225,0.1415673654237704,0
Geelong,-1.0096721883068769,-0.0865224940383496,Australia,AU,Victoria,,0.9390455339782722,0.7294168723169645,1.006513713031047,-1.4924321488135952,-1.1503069900993703,0
Hobart,-1.7962371904151924,0.2277324335272577,Australia,AU,Tasmania,admin,0.8489328071193456,0.8624771430067264,0.7611717301931357,-2.341435021073397,-1.7352062022087893,0
Townsville,2.13179919456922,0.1742087455281007,Australia,AU,Queensland,,0.615098570128456,0.6743653157639582,1.5552883887137874,1.220148643369422,2.514352360666268,1
Ipswich,0.7417177277095931,0.8025495896058354,Australia,AU,Queensland,,0.5450920833978748,0.6070131299694155,0.9625700053549913,-0.29334646285600324,1.5419519815333784,1
Cairns,2.5185638441705707,0.0635065054982662,Australia,AU,Queensland,,0.5047421044298727,0.5371947928258873,1.4725187987186465,1.6709472079123873,2.835408163052324,1
Toowoomba,0.750031313746336,0.7162800099947997,Australia,AU,Queensland,,0.4424041172558624,0.4892188956406506,0.8136201847472416,-0.14427887076038817,1.4709511304151466,1
Darwin,3.265489668055696,-1.5134933817664291,Australia,AU,Northern Territory,admin,0.4422744756137687,0.4943706987204683,2.017594198252829,3.6352170326358206,2.2672878692974154,1
Ballarat,-0.9099091558659624,-0.1393384482510568,Australia,AU,Victoria,,0.319087415882521,0.3295947748183615,0.20034630449340537,-1.0547279635424396,-1.10925850754108,0
Bendigo,-0.7768917792780772,-0.0953216320101875,Australia,AU,Victoria,,0.2941451496506209,0.3168723605293546,0.18357616991738177,-0.986002820127181,-0.9259720909301484,0
Launceston,-1.5570220657939529,0.2087186900106853,Australia,AU,Tasmania,,0.2478120124732653,0.281326210457329,-0.13913729324167753,-1.7906505942181863,-1.5144445486521965,0
Mackay,1.8184268825002337,0.4243239782977989,Australia,AU,Queensland,,0.2196051339813701,-0.0787792297141576,0.5186298146586464,1.111965612158925,2.368933093086613,1
Rockhampton,1.4469924855506369,0.5643496361065262,Australia,AU,Queensland,,0.2134923341299231,0.2437270862256768,0.624421413372713,0.6358057359103028,2.0904959227845996,1
Maitland,-0.1062680480381784,0.6740272466246363,Australia,AU,New South Wales,,0.2112255696605884,-0.086414399859184,-0.2708627428087722,-1.0462889074615778,0.4737156371131839,0
Bunbury,-0.208791191043291,-3.119922318718448,Australia,AU,Western Australia,,0.196878561268889,0.2114390104489077,1.9399221523377537,3.8311267886921043,-2.9357061515010607,3
Coffs Harbour,0.2951950216761346,0.8397531477532675,Australia,AU,New South Wales,,0.1868961548276765,0.0163074749160955,0.11207314320912319,-0.36575230891996074,1.0677209772118095,1
Bundaberg,1.2017416974667223,0.758532773364966,Australia,AU,Queensland,,0.1833565451450585,0.2090718494682061,0.46246575480361196,0.3073383800463781,1.9912006648544862,1
Wagga Wagga,-0.5056859755874512,0.2323696743071343,Australia,AU,New South Wales,,0.126475292542809,0.1396537777268694,-0.13562357281022905,-0.9755268431518436,-0.34893994034391035,0
Hervey Bay,1.1293636174308392,0.8137571350897747,Australia,AU,Queensland,,0.1195296433542755,0.1407857110685503,0.324345731623568,0.24665099136668997,1.9577748702584767,1
Shepparton,-0.7159199392846048,0.0243910098083366,Australia,AU,Victoria,,0.1075751125393957,0.0397423686250408,-0.20593140985422015,-0.9094749373546944,-0.7633860156009985,0
Albury,-0.6655894894181633,0.1845078565995782,Australia,AU,New South Wales,,0.0932084614746518,-0.0738512309452426,-0.33798772442912023,-0.97918789091147,-0.5701116948366429,0
Port Macquarie,0.1071250783529377,0.8166303229989452,Australia,AU,New South Wales,,0.0932045329400429,0.0984178334430484,0.05440313251975342,-0.47092738984263877,0.8407362921553578,1
Pakenham,-0.99656997671297,0.0336654913680867,Australia,AU,Victoria,,0.0871074472270316,0.1052653845708596,-0.23907276604116362,-1.1303431634905459,-1.0616968488879197,0
Tamworth,0.1653201806101374,0.6071305590188193,Australia,AU,New South Wales,,0.0731650779000488,-0.0937525988993588,-0.026242027872379108,-0.1850649512347136,0.7170657695889113,1
Caloundra,0.8777446224427798,0.8408094668375207,Australia,AU,Queensland,,0.0669619217525972,0.0831948363726095,0.17477566461516833,0.0751834195043576,1.7040237953717459,1
Orange,-0.2004776050065474,0.415229070982369,Australia,AU,New South Wales,,0.063819094065478,0.0694394791102056,-0.2330661990269333,-0.8772587089126798,0.14260119277793987,0
Dubbo,-0.0298163108442908,0.3625293118689306,Australia,AU,New South Wales,,0.0555652428521811,0.0707091381816728,-0.18779066124544233,-0.7054219386119103,0.2828890826068001,0
Geraldton,0.5492249566148493,-3.2281316457094427,Australia,AU,Western Australia,,0.0526424131031602,0.067507014964142,1.8992644798046128,4.5601880427534205,-2.207298574883546,3
Nowra,-0.466512358182319,0.5736769336204908,Australia,AU,New South Wales,,0.0517467072123312,-0.0549612863192442,-0.4368761882499761,-1.1709672232979935,-0.011777297356930267,0
Bathurst,-0.2232069492310032,0.4656999968280323,Australia,AU,New South Wales,,0.0493149442894227,0.0561962894054444,-0.27555673206106746,-0.9297060815430543,0.1614257186005744,0
Queanbeyan,-0.5446600669277017,0.4294048730930589,Australia,AU,New South Wales,,0.0475353181115914,-0.0676837006082511,-0.4227985520348585,-1.0947832696459472,-0.22409175279322996,0
Frankston,-1.0110023620727562,-0.0036014459243996,Australia,AU,Victoria,,0.0465492559247577,0.0608316209985636,-0.2991671279920063,-1.0819551846107398,-1.1118857204209998,0
Sunbury,-0.9150802063808168,-0.0480830425623412,Australia,AU,Victoria,,0.046498184974842,0.060775669920838,-0.2656839296358998,-0.9735896072389192,-1.0459670474168252,0
Warrnambool,-1.048463380754319,-0.2837055774960687,Australia,AU,Victoria,,0.0430803598650999,0.0331315335952997,-0.24572991530830465,-0.8526280493161501,-1.399035219320576,0
Wodonga,-0.6723733756241462,0.1815818527361963,Australia,AU,Victoria,,0.0427503629579523,-0.0129764583797104,-0.3400759231703387,-0.98076573599309,-0.5803553581531934,0
Albany,-0.4897072632248314,-2.8824512253872743,Australia,AU,Western Australia,,0.0391164684447207,0.0318920020272233,1.5389440484277115,3.5213807968506354,-3.0415495896126203,3
Gladstone,1.3681963170943878,0.6436580729523272,Australia,AU,Queensland,,0.0360247117075172,0.0493013950580192,0.2852190401814293,0.622023615897222,2.0663233445574476,1
Mildura,-0.3510532753040341,-0.3180359477343302,Australia,AU,Victoria,,0.0333533081734658,0.0463747233000609,-0.08789562061105172,-0.3207905367348883,-0.666272277049631,0
Southport,0.6835226254523934,0.8694462772116525,Australia,AU,Queensland,,0.0300926244480796,0.0428024621837295,0.06323028799721328,-0.06638696526501321,1.5151143823749347,1
Dandenong,-0.9815722675026868,0.0048491067496347,Australia,AU,Victoria,,0.0222276981610637,0.0341859962139759,-0.3364630824161114,-1.0527629045554814,-1.073313150095616,0
Kalgoorlie,0.220921444023874,-2.503824212827219,Australia,AU,Western Australia,,0.0220037716883564,0.0339406722577941,1.5605882565399292,3.703226390823111,-1.9325487811174755,3
Mount Gambier,-0.956365474639282,-0.4633326377734866,Australia,AU,South Australia,,0.0211787794204876,0.0152745319426984,-0.20474616330324488,-0.6152934571306595,-1.4566425135230325,0
Lismore,0.5421916628277647,0.8571190334984057,Australia,AU,New South Wales,,0.0175684561149094,-0.0791235440386233,-0.06156672194482001,-0.11993008416908886,1.3474171348557333,1
Maryborough,1.087429889461508,0.7957046419398695,Australia,AU,Queensland,,0.0119192233473125,-0.0282209750954284,0.10310486741873995,0.3147928730980283,1.8906797793743635,1
Quakers Hill,-0.2754827782300422,0.6031376728803381,Australia,AU,New South Wales,,0.0111256593563149,0.0220230927022257,-0.3867107091180286,-1.0665617194281838,0.22327147592156238,0
Gawler,-0.4190916634287385,-0.6785893407627966,Australia,AU,South Australia,,0.0087371103141043,-0.091729752243123,-0.11491038098912151,-0.005285263756898908,-1.059731293753517,0
Caboolture,0.8331671741137646,0.8237076608634488,Australia,AU,Queensland,,0.0085838974643572,0.0192384506031096,0.07227126246375383,0.09540574814860285,1.6377873106131324,1
Ballina,0.539431552263566,0.8835270106047592,Australia,AU,New South Wales,,0.0083796136646945,-0.0815165285936597,-0.0800554919361169,-0.14148383045137894,1.3672909404825733,1
Taree,0.02952606628598,0.7690959642075069,Australia,AU,New South Wales,,0.0083796136646945,-0.024816567212274,-0.4085971889059015,-0.9802189219387932,0.7016288064375112,0
Traralgon,-1.0172874331165334,0.1448430749858363,Australia,AU,Victoria,,0.0048596466551209,0.0127825570193781,-0.41706143627577613,-1.1905071037733805,-0.9903897159099541,0
Busselton,-0.2610836472144028,-3.1502914923907555,Australia,AU,Western Australia,,0.0042467952561327,0.0144869129254832,1.6238977156631758,3.939212385772043,-3.0274826366312526,3
Armidale,0.2623064753147797,0.6845904374671772,Australia,AU,New South Wales,,0.001005754203791,0.0109361714544309,-0.018700671987578237,-0.18750443085666604,0.8910054249491233,1
Goulburn,-0.4451298148958166,0.4700097786917881,Australia,AU,New South Wales,,-0.0016224354495623,0.0019624793730441,-0.4081610828015301,-1.0611676589249823,-0.07969027553267596,0
Alice Springs,1.3929541763118083,-1.1938934796344958,Australia,AU,Northern Territory,,-0.0020506457219323,0.0075877146490021,0.7794758759179197,2.2884367032601722,0.48035596597838626,1
Devonport,-1.5135752651659349,0.1243610479421471,Australia,AU,Tasmania,,-0.0047220492559837,0.0046610428910438,-0.5297243533108492,-1.524002406350281,-1.551606364974861,0
Bacchus Marsh,-0.9306931209578194,-0.0771318173793307,Australia,AU,Victoria,,-0.0079552332391076,-0.0670079837464872,-0.4008078878674749,-0.9060404156174985,-1.0919343265316397,0
Whyalla,-0.1589096748228331,-0.8030554184604632,Australia,AU,South Australia,,-0.009844858385988,-0.0009512805977465,0.025807131208507344,0.27370518323985454,-0.8832556941983718,0
Cessnock,-0.125804975224524,0.6534818404358926,Australia,AU,New South Wales,,-0.0099116434743393,-0.0292065748492114,-0.42602735995516733,-0.9823577972870802,0.42980333633304896,0
Gympie,0.9789375916820138,0.7918596404731859,Australia,AU,Queensland,,-0.0104066388350606,-0.0480319605393724,0.047192444410921346,0.2530961008809923,1.7677571002166386,1
Griffith,-0.3678633462703284,0.0919954312006005,Australia,AU,New South Wales,,-0.0157023034878565,-0.0162130130296878,-0.30379248368008366,-0.6617111062556431,-0.3273090653190533,0
Kwinana,-0.0269065557314311,-3.105461310455009,Australia,AU,Western Australia,,-0.0163505116983249,-0.018997655128804,1.6171528318509154,4.084135194339155,-2.733054283953757,3
Burnie,-1.494121473839957,0.0745978558829365,Australia,AU,Tasmania,,-0.0191044144591631,-0.0110956413823166,-0.534863527996578,-1.4568575928082803,-1.5745756291453108,0
Wangaratta,-0.7117631462662336,0.1207801262465268,Australia,AU,Victoria,,-0.0193676262779593,-0.0197379309264052,-0.39062168169038053,-0.9323774835272579,-0.6784044355716418,0
Grafton,0.3981005896389377,0.8201478655495112,Australia,AU,New South Wales,,-0.0203104745840951,-0.0497320125164217,-0.09361629746376952,-0.1859680335890633,1.1569175681272261,1
Yeppoon,1.4871803604522522,0.5877576670136005,Australia,AU,Queensland,,-0.0206051146797625,-0.0672662194898364,0.19259471643372353,0.8078538814105705,2.1441718468713127,1
Murray Bridge,-0.5053700593180551,-0.6234494845647311,Australia,AU,South Australia,,-0.0214851064321559,-0.0318620990766529,-0.13377668495283349,-0.12200332358187872,-1.1055304829082762,0
Mount Isa,1.8862324902159089,-0.5988372499016091,Australia,AU,Queensland,,-0.0222354565424557,-0.0940194425008197,0.6130646491911613,2.1516705635441675,1.5396386734136511,1
Narangba,0.8107537461587061,0.8235492130008084,Australia,AU,Queensland,,-0.0222943845615891,-0.0145904317756433,0.015622756769906439,0.0990842217170844,1.6118207437671623,1
Mount Eliza,-1.016156785415537,-0.0081436179866901,Australia,AU,Victoria,,-0.024985430768685,-0.0175386231788807,-0.41930700094733586,-1.0360934448911479,-1.1245414203657629,0
Broken Hill,0.0200984597203131,-0.3909747805020774,Australia,AU,New South Wales,,-0.0255904250984554,-0.0182014282534771,-0.08708697720689113,0.04825203368618221,-0.32673449303703833,0
Nerang,0.678717372723156,0.8612069883544698,Australia,AU,Queensland,,-0.0290082502081976,-0.0219458465320414,-0.03479190027273623,-0.024923988731415457,1.5001258286110104,1
Karratha,1.885717047881632,-2.991780250607578,Australia,AU,Western Australia,,-0.0296211016071859,-0.0226172594647494,1.9707917919430455,5.3652013900830955,-0.5415371284629168,3
Mount Barker,-0.4970065917650917,-0.6674979903781292,Australia,AU,South Australia,,-0.0299314558412889,-0.0349523201387324,-0.12855111924424772,-0.07333640286407321,-1.135268232532502,0
Horsham,-0.771354930977607,-0.3136310971529913,Australia,AU,Victoria,,-0.0303832373213123,-0.0319352658706019,-0.29102685700313274,-0.5841920153609158,-1.1250164767286486,0
Lara,-0.9875081679329206,-0.0794768457463747,Australia,AU,Victoria,,-0.0310078743241272,-0.0241365464214542,-0.4019455300523521,-0.9485896816617827,-1.1560137020720456,0
Singleton,-0.0813272899279488,0.6338554318504506,Australia,AU,New South Wales,,-0.0310432311356073,-0.0730076608503016,-0.46116300138869964,-0.9139660908623335,0.4600148858698955,0
Port Lincoln,-0.4413887011792822,-0.983485281241914,Australia,AU,South Australia,,-0.0311218018277853,-0.0337558278612142,-0.021939718074568338,0.24608578052284796,-1.3515420523990236,0
Banora Point,0.6409903192884169,0.8840868597194146,Australia,AU,New South Wales,,-0.0317464388306003,-0.0249456850839486,-0.05422544363482464,-0.07054870741885207,1.478804660522538,1
Warwick,0.6422041028497815,0.7252798485926465,Australia,AU,Queensland,,-0.0348381955678038,-0.0419246852091624,-0.021129334670904408,0.07635142959941345,1.3405156074811233,1
Rochedale,0.745292569705393,0.8402179281503397,Australia,AU,Queensland,,-0.0350856932481645,-0.0286040247813964,-0.02469913683988189,0.04539844020692189,1.5542880935462822,1
Kempsey,0.1653201806101374,0.8095846747069704,Australia,AU,New South Wales,,-0.0351171215250357,-0.0924872437569475,-0.18338396713631344,-0.327501212892163,0.8919585138907125,1
Ulladulla,-0.5438785898402481,0.5597123953266527,Australia,AU,New South Wales,,-0.0352389060979115,-0.0287718780145735,-0.5081522319652511,-1.1917492971568273,-0.110373702076753,0
Sale,-1.0013586022701346,0.200447711580974,Australia,AU,Victoria,,-0.0358006865469841,-0.0356796841491661,-0.5017092696020428,-1.2012473575050384,-0.9259909865954496,0
Echuca,-0.6743520091008905,-0.0442697306681832,Australia,AU,Victoria,,-0.0365903220033728,-0.0340872303985124,-0.35881590395682383,-0.7498157803992134,-0.7828777078733669,0
Australind,-0.1997958909515355,-3.111292191800092,Australia,AU,Western Australia,,-0.0381420931738879,-0.0319524815868252,1.5536929133321322,3.9758263505924174,-2.9280377835941267,3
Broome,2.347037937060493,-2.4224559537671224,Australia,AU,Western Australia,,-0.0385113754271244,-0.0771308248857781,1.8493462255416007,5.211606177527201,0.4612639256870315,3
Port Hedland,1.956615309602974,-2.806427940893504,Australia,AU,Western Australia,,-0.0390024422532368,-0.0765368826760748,1.8827833065747328,5.270140953364281,-0.3025431921715461,3
Warragul,-1.0096721883068769,0.0807245065716099,Australia,AU,Victoria,,-0.0391752977760284,-0.0330844149285061,-0.46858167101379217,-1.1009489677047737,-1.0401171746326427,0
Port Pirie,-0.1842661122348994,-0.7554999332873422,Australia,AU,South Australia,,-0.0395210088216115,-0.0936880399635215,-0.0870419652596162,0.24861184852467594,-0.8715244931829901,0
Barwon Heads,-1.026299360380363,-0.0689136549038339,Australia,AU,Victoria,,-0.0396113651176162,-0.0335621510537022,-0.427769092335769,-0.9803571818275321,-1.1895487704874692,0
Emerald,1.4234317827225078,0.3148787579782265,Australia,AU,Queensland,,-0.0397920777096255,-0.03376013179027,0.26817768218123483,1.000678731718328,1.8352075356103918,1
Ulverstone,-1.5112640882477202,0.1053789939981005,Australia,AU,Tasmania,,-0.0398313630557145,-0.0338031710808282,-0.5826277922141422,-1.4832014628945003,-1.5672135482201695,0
Morwell,-1.0235226226440908,0.1300229182337511,Australia,AU,Victoria,,-0.0401574314282532,-0.0352578991016957,-0.4887767105843723,-1.15357020512543,-1.0120954705593135,0
Gisborne,-0.8999328526218718,-0.061287031115518,Australia,AU,Victoria,,-0.0404049291086138,-0.0557962485560735,-0.4201571084779191,-0.8898991325473301,-1.0450089021748266,0
Port Augusta,-0.0689899282494229,-0.7820241054929616,Australia,AU,South Australia,,-0.0410492087844732,-0.0662849236651092,-0.03650160173197186,0.3481040240017615,-0.7682780313205314,0
Forster,-0.0171297785522207,0.7756134529573552,Australia,AU,New South Wales,,-0.0412809923263983,-0.0353913209024261,-0.4725023857095213,-0.9997774097993137,0.6549120330575262,0
Penrith,-0.2782595159663142,0.5836274593941649,Australia,AU,New South Wales,,-0.0430291902273584,-0.0373065693322665,-0.4725871188437683,-1.0168258098198968,0.20082768409110663,0
Torquay,-1.0401497947175766,-0.0900400365889156,Australia,AU,Victoria,,-0.0431745460078876,-0.0374658147073319,-0.43032161332496865,-0.969377687557416,-1.223377541987538,0
Jimboomba,0.7057032729984231,0.8307110563920521,Australia,AU,Queensland,,-0.0433984724805949,-0.0377111386635137,-0.04415965690767553,0.030613077833509396,1.5022919350794703,1
Lithgow,-0.2337319491535193,0.5261425748290555,Australia,AU,New South Wales,,-0.0442941783714239,-0.0721425711100816,-0.4720626557079043,-0.9241216986913171,0.1985290154778222,0
Bowral,-0.3993219558333634,0.5544624894779095,Australia,AU,New South Wales,,-0.0443884632020374,-0.0500461993374966,-0.499641948833566,-1.074235910453573,0.04258181334076549,0
Goonellabah,0.5424743247530138,0.8607633343390834,Australia,AU,New South Wales,,-0.0445809613978735,-0.0390066213093158,-0.08953525743807837,-0.11263642930744407,1.3500405863174254,1
Raymond Terrace,-0.1137170211270991,0.6945304000500084,Australia,AU,New South Wales,,-0.0448952441665854,-0.0393509356337815,-0.4744979241057395,-0.9952910550842747,0.4779968451820052,0
Leopold,-1.0161900397596837,-0.0744382037144803,Australia,AU,Victoria,,-0.0449188153742388,-0.0393767592081164,-0.432914034871152,-0.9648204261864538,-1.1835600725426043,0
Dalby,0.8137798914760805,0.6441017269677137,Australia,AU,Queensland,,-0.0452920261620842,-0.0397856324684194,0.03156252818656569,0.27453432411774337,1.4567897139106825,1
Campbelltown,-0.3318322643870857,0.5975603081154772,Australia,AU,New South Wales,,-0.0458930919572458,-0.04044413361396,-0.49287249660515836,-1.0658618832064122,0.1543215834783299,0
Colac,-1.0413136967627203,-0.1673625935563189,Australia,AU,Victoria,,-0.0459677341148149,-0.0555853560323382,-0.4228055606867338,-0.8960117751567938,-1.2928211349529686,0
Muswellbrook,-0.0312296204705368,0.6041517392012228,Australia,AU,New South Wales,,-0.0466866559482434,-0.0425573627803681,-0.43384774019541006,-0.8545746071192784,0.4888760320204299,0
Esperance,-0.2965494052471484,-2.458814456647149,Australia,AU,Western Australia,,-0.0475470050275923,-0.0852996822337264,1.2901898158488296,3.3470718688078294,-2.4627845515041975,3
Drouin,-1.0068954505706047,0.071925368599772,Australia,AU,Victoria,,-0.0485605669566882,-0.0433665014428624,-0.48114812258781553,-1.0851962134903121,-1.0451941537228164,0
Rutherford,-0.1059853861129292,0.6720941827004501,Australia,AU,New South Wales,,-0.0485723525605149,-0.0433794132300299,-0.4723077121807406,-0.9675536664797599,0.46662311819724267,0
Nelson Bay,-0.1059853861129292,0.7375225867791532,Australia,AU,New South Wales,,-0.0488237787754845,-0.0436548646896024,-0.49242642237155276,-1.0252307622181915,0.5239896846093689,0
Inverell,0.3817394523186275,0.6283731358031698,Australia,AU,New South Wales,,-0.0494523443129083,-0.0443434933385338,-0.06159490938025144,-0.01974923389090507,0.9702129435119665,1
Parkes,-0.1691686399921741,0.3267940372486125,Australia,AU,New South Wales,,-0.0504423350343509,-0.0454280834606007,-0.3848042799409173,-0.706583349328573,0.09461805400679459,0
Somerville,-1.0223088390827262,0.0008350942294678,Australia,AU,Victoria,,-0.0507251895261916,-0.0457379663526198,-0.4666348027249283,-1.032064904022989,-1.1244889923369126,0
Gracemere,1.4372988442317944,0.557832147356678,Australia,AU,Queensland,,-0.0508076887529785,-0.0458283488627921,0.17941645766105602,0.8029053270034766,2.062966641222259,1
Batemans Bay,-0.6036532734444299,0.528719993394634,Australia,AU,New South Wales,,-0.0508901879797654,-0.0879422946740005,-0.5679187055865861,-1.1860250320075127,-0.20428483748752385,0
Nambour,0.9062934768929548,0.8228837319777302,Australia,AU,Queensland,,-0.0513105411829176,-0.0463792517819371,-0.012924522720442748,0.18688786627481757,1.7145169684137616,1
Swan Hill,-0.5413346325130053,-0.1710280207786794,Australia,AU,Victoria,,-0.0516405380900651,-0.0520733499227883,-0.3190870461309215,-0.5320739776736245,-0.7491934705062179,0
Mareeba,2.5097514429716234,0.0261550626790395,Australia,AU,Queensland,,-0.0517348229206787,-0.0468440761199658,0.5635150855039248,2.0450749550835687,2.7698260779208814,1
Corinda,0.7638983752556233,0.837756704684027,Australia,AU,Queensland,,-0.0519705349972126,-0.0471023118633151,-0.048468399191426835,0.07171294002457167,1.571766392480162,1
Samford,0.7832856578933074,0.8148662701282393,Australia,AU,Queensland,,-0.0523162460427957,-0.0911013786009731,-0.06940121755699634,0.1179142048693452,1.5721784636708638,1
Mudgee,-0.0889425347376053,0.4666929367672311,Australia,AU,New South Wales,,-0.0523476743196669,-0.0475154890526739,-0.41324734747412606,-0.7713177747898732,0.30498012668850766,0
Casino,0.5369374764525436,0.8325913043620238,Australia,AU,New South Wales,,-0.052383031131147,-0.0475542244141763,-0.0953537682306559,-0.08674801013777046,1.3189475647943203,1
Portland,-1.0401497947175766,-0.3770102422082393,Australia,AU,Victoria,,-0.0524380306156716,-0.0527275471392731,-0.36320254677776515,-0.7084204547240833,-1.4755109486893818,0
Kingston,-1.812249157121959,0.2259683806565547,Australia,AU,Tasmania,,-0.054366941108641,-0.0497277085873659,-0.7067158046107094,-1.7970904258723714,-1.791325850639974,0
Kingaroy,0.9218565099537374,0.7039527662815559,Australia,AU,Queensland,,-0.0544101549893389,-0.0514019369900802,0.019764365451801415,0.3056310589118877,1.6270873284058402,1
Kangaroo Flat,-0.7852053653148195,-0.0970856848808904,Australia,AU,Victoria,,-0.0544258691277745,-0.0497922675232032,-0.3935086214768452,-0.7725615693636708,-0.9511507971541147,0
Bowen,2.0053828052945075,0.3236778959500644,Australia,AU,Queensland,,-0.0544926542161258,-0.0498654343171521,0.36320701986873544,1.420953792068196,2.4788941249365224,1
Young,-0.3695260634776767,0.3307235442420393,Australia,AU,New South Wales,,-0.0548147940540555,-0.0502183564997295,-0.4354971155970626,-0.8514220029278525,-0.12129155342366044,0
Cowra,-0.2894329755996966,0.3685186410766523,Australia,AU,New South Wales,,-0.0557262140833201,-0.0512168680406799,-0.43155939058674325,-0.826627658737333,-0.0005724362379119002,0
Hamilton,-0.9403867622766624,-0.3329934259673701,Australia,AU,Victoria,,-0.0560758536635121,-0.051599917726648,-0.3579181625592929,-0.6746208950402147,-1.3278515831336688,0
Gunnedah,0.184707463247822,0.5367057656715963,Australia,AU,New South Wales,,-0.0570501302465191,-0.0526672921324916,-0.08824088875704393,-0.07563595097337512,0.6739708396448195,1
Mount Evelyn,-0.9487003483134048,0.0226269569376307,Australia,AU,Victoria,,-0.0571444150771327,-0.0527705864298313,-0.46851584692757453,-0.9942819881020629,-1.0251309399221218,0
Andergrove,1.826407925095508,0.4243134151069561,Australia,AU,Queensland,,-0.0582561903714511,-0.0539885983526287,0.28892677787947807,1.2056253898339928,2.371206645357198,1
Moree,0.4343977062753569,0.4928051445299928,Australia,AU,New South Wales,,-0.0586804721092122,-0.0544534226906573,-0.025242887750479746,0.14385206372485618,0.9085382636754162,1
Benalla,-0.7439533514005026,0.0858370909393985,Australia,AU,Victoria,,-0.0587315430591279,-0.054509373768383,-0.44714263142740424,-0.9018399019797461,-0.7457944714014756,0
Currumbin,0.651714845275815,0.8767348788930048,Australia,AU,Queensland,,-0.059426893684903,-0.0552711692112633,-0.09635400147498595,-0.03870627002753887,1.482914845018343,1
Wollert,-0.9177239267405016,-0.0143759005837923,Australia,AU,Victoria,,-0.0596665342960459,-0.0555337088836684,-0.4551063942851689,-0.9376798080462722,-1.0238024761068951,0
Mittagong,-0.3944668215879062,0.557832147356678,Australia,AU,New South Wales,,-0.0599061749071887,-0.0697065472644869,-0.5276675110854718,-1.0631200726232595,0.050146544938820745,0
Kelso,-0.2229741688219737,0.4686365638822602,Australia,AU,New South Wales,,-0.0600279594800646,-0.0559296703568039,-0.4549578570517316,-0.8645755720051606,0.15974220657949648,0
Yanchep,0.0877211685431796,-3.11984837638255,Australia,AU,Western Australia,,-0.0604208129409545,-0.056360063262386,1.5792492043892987,4.20443502272125,-2.621972352179713,3
Bentley,0.0127326224917596,-3.08921512293918,Australia,AU,Western Australia,,-0.0607586669173198,-0.0567302011611866,1.553683765532291,4.123619675763015,-2.677152595832154,3
Moe,-1.0133634205071902,0.1160583799399101,Australia,AU,Victoria,,-0.0607743810557554,-0.0567474168774099,-0.5163548076219135,-1.121084197697372,-1.0140851684256504,0
Ayr,2.0789247873755348,0.2363519972547725,Australia,AU,Queensland,,-0.0609315224401114,-0.0569195740396428,0.3941258734253233,1.5551589670271828,2.4824881177142006,1
Moranbah,1.6753500668078896,0.3046641524334891,Australia,AU,Queensland,,-0.0609433080439381,-0.0569324858268102,0.2886423020392556,1.2044234334124642,2.1009250938404223,1
Leeton,-0.4108113317361418,0.1301391133330199,Australia,AU,New South Wales,,-0.0613833039201347,-0.0574145258810622,-0.39485934183606103,-0.6996301605274851,-0.34263380311202984,0
Moss Vale,-0.4108113317361418,0.5491492044841089,Australia,AU,New South Wales,,-0.0615561594429263,-0.0576038987595183,-0.5212820054084044,-1.0699154008039242,0.024808428889724614,0
Wallan,-0.8877451354920062,-0.0196258064325325,Australia,AU,Victoria,,-0.0617879429848514,-0.0579266934387049,-0.45084006314314684,-0.9101008231385083,-0.9957037869504433,0
Springwood,-0.2692143343583378,0.5703284021234051,Australia,AU,New South Wales,,-0.0619647270422518,-0.0580515073813237,-0.4985573953512966,-0.986503487535689,0.1982564761337217,0
Lesmurdie,0.0138965245369032,-3.0759055024775788,Australia,AU,Western Australia,,-0.06211401135739,-0.0582150566854449,1.5476405020021289,4.11355477481495,-2.6642650644202397,3
Forbes,-0.2171047770800333,0.3007980245851166,Australia,AU,New South Wales,,-0.0621336540304345,-0.058236576330724,-0.4067446151872301,-0.7106463893485232,0.01888792663373502,0
Emu Plains,-0.2777939551482566,0.5808387770117345,Australia,AU,New South Wales,,-0.0621768679111324,-0.058283919550338,-0.5038832806721092,-1.0018320325627903,0.19807930791525197,0
Rye,-1.04741586891369,-0.0349741227267474,Australia,AU,Victoria,,-0.0621965105841769,-0.0583054391956171,-0.4804482192163034,-1.0111687219603358,-1.1838427847667887,0
Darley,-0.9273178050269024,-0.0773325180053367,Australia,AU,Victoria,,-0.0623693661069684,-0.0584948120740732,-0.44272327071178924,-0.8872088043699582,-1.0896214204707355,0
Ararat,-0.865564487945976,-0.2379247083844964,Australia,AU,Victoria,,-0.0626522205988091,-0.0588176067532598,-0.3818756869208634,-0.7006362049371634,-1.1629127481599582,0
Tweed Heads,0.6475081707412235,0.8852910634754653,Australia,AU,New South Wales,,-0.0631393588903126,-0.0593383821690142,-0.10606420344693344,-0.04693209805212147,1.4856590410181,1
Highfields,0.7680884226181414,0.7161955044680596,Australia,AU,Queensland,,-0.0633161429477131,-0.0595320589765261,-0.030093628758398987,0.18940998572786283,1.4692659504176644,1
Charters Towers,1.9915323709572936,0.1159421848406413,Australia,AU,Queensland,,-0.063359356828411,-0.0595794021961401,0.40790015144859953,1.6002690649877582,2.2811939546831264,1
Melton,-0.93207317623992,-0.0618785698026989,Australia,AU,Victoria,,-0.0635597120934648,-0.059798902577987,-0.45037950498736995,-0.903533008744633,-1.0813214970311291,0
Katoomba,-0.2722571068477863,0.5433394495207133,Australia,AU,New South Wales,,-0.0639722082273992,-0.0602508151288482,-0.49445264075491335,-0.9635566196038846,0.17117497963698108,0
Kilmore,-0.865564487945976,-0.0231433489831015,Australia,AU,Victoria,,-0.0639957794350526,-0.0602766387031831,-0.44878231773957783,-0.889645887154414,-0.974617695884714,0
Mooroopna,-0.7159199392846048,0.0191094143870647,Australia,AU,Victoria,,-0.064058635988795,-0.0603455015680763,-0.43012639213883314,-0.819292773012004,-0.7738714077296198,0
Yarrawonga,-0.6549647264632065,0.0877701548635847,Australia,AU,Victoria,,-0.0641057784041018,-0.0603971487167461,-0.4380510383428411,-0.836102315948236,-0.6469829446950163,0
Maryborough,-0.8267732954985338,-0.1514861177199775,Australia,AU,Victoria,,-0.0641411352155819,-0.0604358840782485,-0.40223236574561133,-0.7481924673192292,-1.0447401242619716,0
Deniliquin,-0.5743229419068009,-0.0247912067545356,Australia,AU,New South Wales,,-0.0643729187575069,-0.0606898158925419,-0.3876525388362649,-0.6784118340817571,-0.6574909010894195,0
Mandurah,-0.0750422188841717,-3.110436573341846,Australia,AU,Western Australia,,-0.0644711321227294,-0.0607974141189375,1.5353570425787395,4.081592477642598,-2.7919366600921864,3
Bli Bli,0.9077732952074952,0.831101894453227,Australia,AU,Queensland,,-0.0646125593686498,-0.060952355564947,-0.03747993540592009,0.18915891078604669,1.7227784380595532,1
Kiama,-0.4311796175261622,0.6005285647422308,Australia,AU,New South Wales,,-0.0650093413641486,-0.0649119702963023,-0.5493773438756107,-1.1268353253869543,0.04738100121296499,0
Narre Warren North,-0.9819546924603764,0.0155918718364987,Australia,AU,Victoria,,-0.06511148326398,-0.0614989545550363,-0.4868057682679852,-1.0069147528025248,-1.0680150327024671,0
Narrabri,0.290290005914456,0.4857700594288608,Australia,AU,New South Wales,,-0.0653786236173851,-0.0617916217308321,-0.06471696296116049,0.05065645010358303,0.7444459809451583,1
Bairnsdale,-0.9570139343501484,0.2585452612149533,Australia,AU,Victoria,,-0.0654807655172165,-0.0619035238862835,-0.5553151845998692,-1.2035008872697774,-0.8276909071705294,0
Clifton Springs,-1.0096721883068769,-0.063632059482562,Australia,AU,Victoria,,-0.0657204061283593,-0.0621660635586885,-0.46981355729544755,-0.9564365204043841,-1.1678360828501693,0
North Tamborine,0.6830736918064092,0.8482353899998276,Australia,AU,Queensland,,-0.065771477078275,-0.0622220146364142,-0.09185861532416141,0.013088502546341398,1.4919565187732917,1
Bargara,1.206646713228401,0.7704163630628265,Australia,AU,Queensland,,-0.0658539763050619,-0.0623123971465865,0.041572120529687305,0.4586221483925794,1.9964441478763446,1
Kingscliff,0.6353537079555054,0.8882593201022189,Australia,AU,New South Wales,,-0.0659364755318488,-0.0624027796567587,-0.11422337554172794,-0.05651937267023618,1.474847693412069,1
Healesville,-0.9275505854359316,0.0364224841779914,Australia,AU,Victoria,,-0.0659482611356755,-0.0624156914439262,-0.4830398920326524,-0.9856539714538037,-0.990270765891851,0
Fremantle,0.0034380333026809,-3.108239429646598,Australia,AU,Western Australia,,-0.0659561182048933,-0.0624242993020378,1.5487057254541092,4.137059483123521,-2.704223655528558,3
Blaxland,-0.277295139986052,0.5755254920179368,Australia,AU,New South Wales,,-0.0659875464817645,-0.0624587307344844,-0.5085938914503408,-0.9943496018842548,0.1938038661302246,0
Atherton,2.4627796818640264,0.0326302986655192,Australia,AU,Queensland,,-0.0664589706348323,-0.0629752022211829,0.5268975130185746,2.0149332840239036,2.7234978015826536,1
Kyabram,-0.7048462426836631,-0.0125801581405577,Australia,AU,Victoria,,-0.0664982559809213,-0.0630182415117411,-0.4223644252385314,-0.7817592060912941,-0.7896514817042319,0
Innisfail,2.41991483225858,0.0908546065896072,Australia,AU,Queensland,,-0.0668321814226777,-0.0895993073604916,0.4809020454969064,1.939952857295512,2.727226878674008,1
Sanctuary Point,-0.5031420182602084,0.5764973055754499,Australia,AU,New South Wales,,-0.0668753953033756,-0.0634314187010999,-0.5578925636442718,-1.1571314972862865,-0.05243449064320819,0
Collie,-0.213729461149116,-3.064708520184484,Australia,AU,Western Australia,,-0.0670050369454693,-0.063573448359942,1.4881505243467008,3.9430033818179506,-2.9036524398006516,3
Gatton,0.7509624353824514,0.7506631961872726,Australia,AU,Queensland,,-0.0673625335948791,-0.0639651059040217,-0.0508837685437298,0.1491966767356158,1.4805866163645531,1
Merrimac,0.6696721911151796,0.8659287346610864,Australia,AU,New South Wales,,-0.0674803896331461,-0.0640942237756964,-0.10288081439873555,-0.011105602817699144,1.4927403155974115,1
Murwillumbah,0.6225674126309946,0.8676822243409466,Australia,AU,New South Wales,,-0.0676336024828932,-0.0642620770088734,-0.11357603062227507,-0.046448174179163935,1.4427438199057714,1
Urraween,1.1276676458793435,0.8083804709509197,Australia,AU,Queensland,,-0.0678811001632538,-0.0645332245393901,0.01011668945440123,0.36953123271636606,1.9432558112855116,1
Kyneton,-0.8572509019092336,-0.0759593031958088,Australia,AU,Victoria,,-0.067951813786214,-0.0646106952623949,-0.43779423011512003,-0.8344571890805675,-1.0120080728270957,0
Bongaree,0.8307229798189626,0.8444432044873554,Australia,AU,Queensland,,-0.0679675279246496,-0.0646279109786182,-0.06335290417816468,0.12406725064657026,1.6500507519828993,1
Roma,0.9152056411243432,0.3821557204543727,Australia,AU,Queensland,,-0.0683564528509306,-0.0650539999551444,0.0929241950312206,0.5937485305755557,1.3370479408214218,1
Mount Cotton,0.7413685570960501,0.850538165603503,Australia,AU,Queensland,,-0.0684075238008463,-0.0651099510328701,-0.08472585635678774,0.054672536390915245,1.5576326282004227,1
Cootamundra,-0.4263411104527779,0.3016747694250497,Australia,AU,New South Wales,,-0.0686157361351179,-0.0653380592728286,-0.46193773866559423,-0.8578310513400464,-0.2095008692126016,0
Beerwah,0.8682671343608933,0.8229682375044703,Australia,AU,Queensland,,-0.0686668070850336,-0.0653940103505543,-0.05016744359016242,0.17050753779554706,1.6722580782402185,1
Castlemaine,-0.8290345909005286,-0.100550411477245,Australia,AU,Victoria,,-0.0687139495003404,-0.0654456574992242,-0.42573885599456535,-0.791933304480812,-1.0027397906420812,0
Pottsville,0.6136552483996063,0.8864318880864586,Australia,AU,New South Wales,,-0.068922161834612,-0.0656737657391827,-0.12326415178007334,-0.06861382543349583,1.4493826469838025,1
Cooma,-0.6912618430996257,0.4179543742197452,Australia,AU,New South Wales,,-0.0690125181306167,-0.0657727561074665,-0.5533400220650736,-1.1509672666186423,-0.39734231932446307,0
Gordonvale,2.4914116721745687,0.0652283056056006,Australia,AU,Queensland,,-0.0690518034767057,-0.0658157953980248,0.5187432647944099,2.008368197827724,2.7832949590675495,1
Lysterfield,-0.973641106423634,0.0138278189657957,Australia,AU,Victoria,,-0.0690832317535769,-0.0658502268304713,-0.49121193069881075,-0.9968447585009572,-1.060636274033618,0
Bomaderry,-0.4606429664403788,0.5742050931626174,Australia,AU,New South Wales,,-0.0690910888227947,-0.065858834688583,-0.55199194973947,-1.1231177770711411,-0.008049084948154437,0
Chinchilla,0.8875380267940631,0.5763177313311267,Australia,AU,Queensland,,-0.0692835870186308,-0.0660697272123182,0.027095759808735277,0.4027983871644228,1.4770128896508052,1
Northam,0.0705785541354162,-3.01082568369668,Australia,AU,Western Australia,,-0.0695350132336003,-0.0663451786718907,1.5274815507876414,4.101532139399632,-2.545504049107735,3
Yass,-0.4560372397760239,0.3955392832518726,Australia,AU,New South Wales,,-0.0697000116871741,-0.0665259436922352,-0.498265594665124,-0.9614798737595037,-0.15971713941198518,0
Strathalbyn,-0.5302609359120637,-0.6622163949568572,Australia,AU,South Australia,,-0.0697078687563919,-0.0665345515503469,-0.1954845055816417,-0.0798442155136007,-1.1685059239931268,0
Burpengary,0.8202811157568131,0.8271935138414861,Australia,AU,Queensland,,-0.0699867947136237,-0.0668401305133102,-0.06375628188433495,0.13308897461893404,1.623415735893555,1
Waterford,0.7306440311086521,0.8412425576620672,Australia,AU,Queensland,,-0.0699946517828415,-0.0668487383714218,-0.08685558906424114,0.056184472840036144,1.5376820455458835,1
Lennox Head,0.545251062489286,0.888924801125297,Australia,AU,New South Wales,,-0.0700889366134551,-0.0669520326687615,-0.14036896682358013,-0.11928868336389477,1.376692267120785,1
Beaudesert,0.6799810378007409,0.8267498598260996,Australia,AU,Queensland,,-0.0701360790287619,-0.0670036798174314,-0.09338903235452685,0.03263565339375008,1.4695466914952235,1
Margaret River,-0.3121623198241512,-3.1788966131923573,Australia,AU,Western Australia,,-0.0701478646325886,-0.0670165916045988,1.496525705632507,3.9751257687710155,-3.1115979036803556,3
Helensburgh,-0.3501221536679199,0.6159296969906571,Australia,AU,New South Wales,,-0.0701832214440686,-0.0670553269661012,-0.5431402170759796,-1.0797903544060414,0.14939309352992128,0
Goondiwindi,0.5871847904586173,0.5430119906045927,Australia,AU,Queensland,,-0.0702932204131178,-0.0671758369796642,-0.027763531666747325,0.21679012919641621,1.1192075910354566,1
Seymour,-0.8234478610838374,-0.0041296054665262,Australia,AU,Victoria,,-0.070403219382167,-0.0672963469932272,-0.456432202084677,-0.8720718809900914,-0.9121442208176102,0
Nambucca Heads,0.2387956540028708,0.8262005739022873,Australia,AU,New South Wales,,-0.070403219382167,-0.0672963469932272,-0.1864857676980045,-0.2841247698147576,0.986442873141405,1
Nuriootpa,-0.3972435593241784,-0.6534172569850194,Australia,AU,South Australia,,-0.0704542903320827,-0.0673522980709528,-0.17140686132929023,0.008553829400017261,-1.0153140705326844,0
Wauchope,0.1018542648056426,0.7991376789636954,Australia,AU,New South Wales,,-0.0704621474013005,-0.0673609059290645,-0.2072468379689406,-0.3586883842818314,0.8129080578236084,1
Tumut,-0.5365792612999877,0.3225687609115968,Australia,AU,New South Wales,,-0.0707842872392302,-0.0677138281116418,-0.49506874124532896,-0.954232032543077,-0.31185896538068264,0
Wentworthville,-0.2902643342033714,0.61252834953936,Australia,AU,New South Wales,,-0.0709139288813239,-0.0678558577704839,-0.5307541025934823,-1.0332528854040675,0.2118575118847304,0
Tuncurry,-0.0161986569161053,0.77426136452951,Australia,AU,New South Wales,,-0.0709571427620218,-0.0679032009900979,-0.5218568835468819,-0.9790138156776477,0.6534861962170172,0
Glen Innes,0.3870102658659226,0.693685344782604,Australia,AU,New South Wales,,-0.0710789273348976,-0.0680366227908284,-0.11655315841554485,-0.05991926211755013,1.0323367324713053,1
Yamba,0.439668519822652,0.8641646817903805,Australia,AU,New South Wales,,-0.0713892815690006,-0.0683766331862383,-0.15731607496546735,-0.17253583795140906,1.2394275176811718,1
Wentworth Falls,-0.2724898872568146,0.5501421444233078,Australia,AU,New South Wales,,-0.0713892815690006,-0.0683766331862383,-0.5090354188431098,-0.9650141554668505,0.17657135777667818,0
South Grafton,0.3928297760916426,0.82026406064878,Australia,AU,New South Wales,,-0.0714207098458718,-0.0684110646186848,-0.15400737342572762,-0.16740737493659583,1.1496909746829749,1
Kurri Kurri,-0.1228952201116631,0.6669815983326615,Australia,AU,New South Wales,,-0.0715149946764854,-0.0685143589160245,-0.5129481102076364,-0.9605898258871616,0.4426689752275214,0
Stawell,-0.8267732954985338,-0.2537694946483091,Australia,AU,Victoria,,-0.0715621370917922,-0.0698399690652174,-0.38485009064451725,-0.6527058656786243,-1.1347726135168423,0
Cobram,-0.6466511404264641,0.0507989869146902,Australia,AU,Victoria,,-0.0716328507147524,-0.0686434767876991,-0.4378441480942642,-0.7926459246653276,-0.670629747994311,0
Wynyard,-1.48354659240122,0.0578446352066652,Australia,AU,Tasmania,,-0.0716839216646681,-0.0686994278654248,-0.6161091087548132,-1.400956034746007,-1.5799295899484052,0
Naracoorte,-0.8109774820287227,-0.4675473509196624,Australia,AU,South Australia,,-0.0718449915836329,-0.0688758889567135,-0.3167365082737839,-0.45253109557946786,-1.3049567921022671,0
North Mackay,1.821669181054564,0.4235000494120803,Australia,AU,Queensland,,-0.0719510620180732,-0.0689920950412207,0.2651205241822696,1.211656257576393,2.3647288241685924,1
Cannington,0.0101221564762219,-3.0864686933201195,Australia,AU,Western Australia,,-0.0719667761565088,-0.0690093107574439,1.533439920861865,4.126451352163534,-2.678075078747219,3
Concord,-0.2937726675108764,0.6254682583214735,Australia,AU,New South Wales,,-0.0720257041756423,-0.0690738696932812,-0.5372589458571965,-1.0465075758760451,0.2193202183490637,0
Woodend,-0.8788163440885446,-0.067931278155475,Australia,AU,Victoria,,-0.0724499859134034,-0.0695386940313099,-0.4523198896861276,-0.8542047524599764,-1.0287490506898644,0
Dromana,-1.0409312718050308,-0.0215588703567187,Australia,AU,Victoria,,-0.0724617715172301,-0.0695516058184774,-0.5004030837679523,-1.0118249164876485,-1.1654202374189946,0
Emerald,-0.9736078520794872,0.0282993904200776,Australia,AU,Victoria,,-0.0725599848824526,-0.0696592040448729,-0.5014140422474418,-1.0073992924358859,-1.0480565609810715,0
Biloela,1.276530717453261,0.5645186471600065,Australia,AU,Queensland,,-0.0726385555746306,-0.0697452826259893,0.10683231145344889,0.6952304736596461,1.8920408544644751,1
Alstonville,0.5396975870167418,0.8730800148614872,Australia,AU,New South Wales,,-0.0727131977321996,-0.0698270572780499,-0.14118533928517257,-0.10760657838403738,1.356611004613509,1
Cannonvale,1.9605559493843896,0.3715608400393031,Australia,AU,Queensland,,-0.0728035540282043,-0.0699260476463338,0.308537993772211,1.358035961929097,2.4710723811152753,1
Point Vernon,1.1346011766339876,0.8079368169355332,Australia,AU,Queensland,,-0.0728703391165556,-0.0699992144402828,0.003309871202933379,0.3780890893291445,1.9502396973868452,1
Palmwoods,0.8960843932398345,0.8229365479319417,Australia,AU,Queensland,,-0.0729606954125603,-0.0700982048085666,-0.05153438675564647,0.19328345956125445,1.7024773480363662,1
Scone,-0.0009515401247196,0.6000849107268443,Australia,AU,New South Wales,,-0.073164979212223,-0.0703220091194693,-0.4699349348519782,-0.8126700990262964,0.5173278232206862,0
Whittlesea,-0.9039067467474344,-0.0058197160013319,Australia,AU,Victoria,,-0.0732160501621387,-0.070377960197195,-0.4775847851328019,-0.9266736925668209,-1.0017592894940082,0
East Ballina,0.5350918603523863,0.889220570468889,Australia,AU,New South Wales,,-0.0733731915464947,-0.0705501173594279,-0.14812397259918514,-0.12476780517894416,1.3656992359859157,1
Sarina,1.7716380202854454,0.427640820222356,Australia,AU,Queensland,,-0.0735656897423307,-0.0707610098831631,0.2506308838276276,1.17302862712008,2.3135627059587724,1
Byron Bay,0.5701918205995149,0.8924529068667059,Australia,AU,New South Wales,,-0.0735696182769396,-0.0707653138122189,-0.14204365371624672,-0.1022469411387207,1.4069211874042078,1
Granville,-0.2960007085687229,0.6170493952199677,Australia,AU,New South Wales,,-0.0736521175037265,-0.0708556963223911,-0.5379313231379961,-1.039632746244848,0.209431096360323,0
Corowa,-0.6494112509906622,0.1282588653630451,Australia,AU,New South Wales,,-0.0737228311266867,-0.0709331670453959,-0.4652603111605749,-0.861773527929341,-0.6058094715660846,0
Richmond,-0.2528531970380283,0.5896379149835723,Australia,AU,New South Wales,,-0.0737228311266867,-0.0709331670453959,-0.5207219156900862,-0.9843136005753566,0.23258856418140697,0
Cooranbong,-0.165676933856742,0.6635696876905184,Australia,AU,New South Wales,,-0.0738524727687804,-0.071075196704238,-0.5248560100484029,-0.9868650294944672,0.39277903720923063,0
Bullsbrook,0.0689324641001409,-3.0780181406460865,Australia,AU,Western Australia,,-0.0738564013033893,-0.0710795006332938,1.54008703144064,4.162496394249622,-2.6064121971214282,3
Inverloch,-1.0900479381101074,0.0590171493901871,Australia,AU,Victoria,,-0.0738996151840871,-0.0711268438529079,-0.5374115079648981,-1.1174741917288022,-1.1485488481446344,0
New Norfolk,-1.7799758161273236,0.19967659864947,Australia,AU,Tasmania,,-0.0739192578571316,-0.071148363498187,-0.724926752351985,-1.7381782755872963,-1.7799079634582917,0
Stanthorpe,0.5691276815868119,0.7146955313684199,Australia,AU,Queensland,,-0.074021399756963,-0.0712602656536383,-0.08951899581691498,0.05440860296156328,1.249854204886298,1
Wingham,0.0378396523227224,0.7603285158081977,Australia,AU,New South Wales,,-0.0741471128644478,-0.0713979913834246,-0.5116647668874147,-0.9257875406642587,0.7002448043318379,0
West Tamworth,0.1643059231136547,0.6099720573554641,Australia,AU,New South Wales,,-0.0742728259719326,-0.0715357171132109,-0.14358061815856465,-0.14411198718991383,0.7151738442434031,1
Irymple,-0.3584357397046622,-0.3171486397035573,Australia,AU,Victoria,,-0.0743396110602838,-0.0716088839071598,-0.27100805258615007,-0.258304908717823,-0.6781374629056456,0
Dunsborough,-0.2559125966995496,-3.1762558154817224,Australia,AU,Western Australia,,-0.0743592537333283,-0.0716304035524389,1.5004745137684439,4.015942812001619,-3.0479293552559383,3
Kununurra,2.7108903435445795,-1.7355844692308655,Australia,AU,Western Australia,,-0.0744063961486351,-0.0716820507011088,1.690847651908257,4.876954233358458,1.4608337622353442,3
Smithfield Heights,2.535008117351248,0.0551298951601319,Australia,AU,Queensland,,-0.0744260388216796,-0.0717035703463879,0.5219074344829778,2.0520833849059477,2.821901212520853,1
Woolgoolga,0.3263210877977,0.8484360906258366,Australia,AU,New South Wales,,-0.0744771097715953,-0.0717595214241136,-0.18162446701648338,-0.23821488751196893,1.1015131451216906,1
Bannockburn,-0.993045016233391,-0.1058848228527284,Australia,AU,Victoria,,-0.0745046095138576,-0.0717896489275043,-0.4683841304081387,-0.9015294401898075,-1.1870736880702482,0
Maffra,-0.9764178441599064,0.1916063208457676,Australia,AU,Victoria,,-0.0745163951176843,-0.0718025607146718,-0.5544577816375215,-1.152534670910601,-0.9080018860002493,0
Tannum Sands,1.351818552602005,0.6547494233369977,Australia,AU,Queensland,,-0.0750467472898857,-0.0723835911372076,0.09145511411020198,0.6711688618603862,2.0534233444570815,1
Ocean Shores,0.5933202169537334,0.8839706646201457,Australia,AU,New South Wales,,-0.0750781755667569,-0.0724180225696542,-0.1371643058447281,-0.07714814715772784,1.4247187817975482,1
Howard Springs,3.25649436796394,-1.4911099803710857,Australia,AU,Northern Territory,,-0.0750978182398014,-0.0724395422149333,1.138009714373345,3.9384337184732408,2.2551332968054707,1
Leongatha,-1.065090552827805,0.0824885594423129,Australia,AU,Victoria,,-0.075148889189717,-0.0724954932926589,-0.5413296968291806,-1.1194709238970113,-1.100717879950104,0
Worragee,-0.4716834086971735,0.577754325285712,Australia,AU,New South Wales,,-0.0753492444547709,-0.0727149936745058,-0.5659180297342571,-1.1302130540844135,-0.017279121362036572,0
Tahmoor,-0.3567730224973139,0.5729163838798296,Australia,AU,New South Wales,,-0.0753531729893798,-0.0727192976035616,-0.5402945601800521,-1.0432602713595531,0.10417807185094034,0
Red Cliffs,-0.3707731013831882,-0.3148881168632534,Australia,AU,Victoria,,-0.0753806727316421,-0.0727494251069524,-0.2760364811958877,-0.2685164488940278,-0.6896950468150784,0
Glenbrook,-0.2805706928845287,0.5764973055754499,Australia,AU,New South Wales,,-0.0754160295431222,-0.0727881604684548,-0.5254475944292762,-0.9915610181757563,0.19067308427778737,0
McMinns Lagoon,3.249727108930032,-1.4914268760963605,Australia,AU,Northern Territory,,-0.0755181714429536,-0.0729000626239061,1.135973845388405,3.9341127524201203,2.2474348918043177,1
Kiama Downs,-0.4246783932454296,0.6002011058261132,Australia,AU,New South Wales,,-0.0756006706697404,-0.0729904451340784,-0.5632098156758734,-1.116077059045508,0.05381343152196299,0
Lyndhurst,-0.9981994395761726,0.0040040514822303,Australia,AU,Victoria,,-0.0756910269657451,-0.0730894355023622,-0.5045447850180984,-1.0016215598519287,-1.0963957120412753,0
Wonthaggi,-1.0854255842736782,0.0446406466534883,Australia,AU,Victoria,,-0.0757538835194875,-0.0731582983672554,-0.5352329533181291,-1.1002592432083111,-1.1561785498989405,0
Junee,-0.4636524845856803,0.2549009603742756,Australia,AU,New South Wales,,-0.0759228105076702,-0.0733433673166557,-0.4680078233622998,-0.8386748730678327,-0.29164368408536107,0
Pinjarra,-0.0918522898504662,-3.094803050894885,Australia,AU,Western Australia,,-0.075969952922977,-0.0733950144653255,1.5077573197666236,4.063001315674798,-2.797103064981916,3
Encounter Bay,-0.5813894900380318,-0.6938531515302684,Australia,AU,South Australia,,-0.076005309734457,-0.0734337498268279,-0.20731828203288463,-0.08465273850034936,-1.2524460803633437,0
Nairne,-0.4914531162925474,-0.6604523420861543,Australia,AU,South Australia,,-0.0762370932763821,-0.0736876816411214,-0.19884292602034084,-0.04932488375794229,-1.1247841654888844,0
Cowes,-1.059736603420142,0.0076906050862766,Australia,AU,Victoria,,-0.0762488788802088,-0.0737005934282888,-0.5195392225413659,-1.0487987839764659,-1.1605017000106026,0
Picton,-0.3498561189147435,0.5737931287197596,Australia,AU,New South Wales,,-0.0763392351762135,-0.0737995837965727,-0.5407633238994549,-1.0384308970518268,0.1124714789097276,0
Salamander Bay,-0.1083464445473634,0.7310050980293049,Australia,AU,New South Wales,,-0.0763431637108224,-0.0738038877256285,-0.5372878538682847,-1.0036431500291347,0.5145242413463238,0
Lakes Entrance,-0.9625674098226924,0.2972699188437108,Australia,AU,Victoria,,-0.0763628063838669,-0.0738254073709076,-0.5864595161120989,-1.234798171348854,-0.8002679133445257,0
Mansfield,-0.8267732954985338,0.096537603262894,Australia,AU,Victoria,,-0.0764531626798715,-0.0739243977391915,-0.49761950858017034,-0.959599163681393,-0.8277587123422631,0
Churchill,-1.0373896841533774,0.1318186606769827,Australia,AU,Victoria,,-0.0764688768183071,-0.0739416134554148,-0.5525738392951604,-1.1423072824664304,-1.0272121295217684,0
Bucasia,1.8367167717810688,0.4215352959153655,Australia,AU,Queensland,,-0.0765160192336139,-0.0739932606040846,0.26119279425702246,1.2271262961445109,2.3792727176110593,1
Strathfield,-0.2964662693867806,0.6252886840771503,Australia,AU,New South Wales,,-0.0765317333720495,-0.0740104763203079,-0.5453570781893275,-1.0454172348013586,0.2160251041375649,0
Boyne Island,1.351768671085784,0.6534290244816782,Australia,AU,Queensland,,-0.0765592331143118,-0.0740406038236987,0.08929594394461568,0.6732633629737501,2.052146709502366,1
Blackwater,1.4317453687592503,0.3800219559041775,Australia,AU,Queensland,,-0.0766024469950097,-0.0740879470433127,0.18834974834297283,0.9725166575617417,1.8998675851175142,1
Millicent,-0.9176740452242804,-0.5087966111597871,Australia,AU,South Australia,,-0.0766613750141432,-0.07415250597915,-0.33487332783349166,-0.4897646266498811,-1.4580493917646615,0
Oakey,0.7721288254319985,0.6921008661562242,Australia,AU,Queensland,,-0.0767753025178013,-0.0742773199217688,-0.04464800856345102,0.22218712015063727,1.4519851598509967,1
Temora,-0.3916900838516342,0.2497355600522725,Australia,AU,New South Wales,,-0.0768224449331081,-0.0743289670704387,-0.4528286168689111,-0.7817616593060788,-0.21749226172228375,0
Narromine,-0.0258922982349479,0.3236778959500644,Australia,AU,New South Wales,,-0.0768381590715436,-0.074346182786662,-0.39816036430075485,-0.5839373911222194,0.24749519153735014,0
Ningi,0.8331671741137646,0.8359926518133239,Australia,AU,Queensland,,-0.0768931585560682,-0.0744064377934435,-0.07532048111136848,0.13897990242373218,1.6449351908178051,1
Bega,-0.7660342359140909,0.4936290734157113,Australia,AU,New South Wales,,-0.0769206582983305,-0.0744365652968342,-0.6051624615734692,-1.2666217686949957,-0.41310824594966966,0
Mount Low,2.1370700081165146,0.1596843581196075,Australia,AU,Queensland,,-0.0769717292482462,-0.0744925163745599,0.40243424847855774,1.6749794594960952,2.4781791573544876,1
Leura,-0.2725397687730355,0.5455049036434342,Australia,AU,New South Wales,,-0.0770149431289441,-0.0745398595941739,-0.5171203404482981,-0.9573682748053477,0.17221157361843772,0
Renmark,-0.3485924538371591,-0.4676635460189282,Australia,AU,South Australia,,-0.0770542284750331,-0.0745828988847321,-0.2281987049356886,-0.1164425785455357,-0.7994786391634718,0
South West Rocks,0.1984248802084477,0.8314504797510305,Australia,AU,New South Wales,,-0.077176013047909,-0.0747163206854626,-0.20796037637646092,-0.3134977275908232,0.9465980859021865,1
Tanunda,-0.4055571453609207,-0.6551707466648824,Australia,AU,South Australia,,-0.0772349410670424,-0.0747808796212999,-0.18404262813426436,0.008440643466507032,-1.026233576618505,0
Kadina,-0.3134093577296626,-0.7876542862120369,Australia,AU,South Australia,,-0.0772388696016513,-0.0822654122493726,-0.13015436764444757,0.19387557861972632,-1.0417359729274935,0
Newman,1.4505008188581423,-2.686979378846045,Australia,AU,Western Australia,,-0.0773174402938293,-0.0748712621314721,1.7071901677205337,4.813017036366899,-0.7523471175807865,3
Glenella,1.82198509732396,0.4209543204190274,Australia,AU,Queensland,,-0.0775060099550565,-0.0750778507261515,0.25660200310975506,1.2176714352354812,2.3626063284579497,1
Roxby Downs,0.2519144927688512,-0.875751297838833,Australia,AU,South Australia,,-0.0775806521126256,-0.0778108456765979,0.01818422149728714,0.6773918667922707,-0.5005232395385963,0
Numurkah,-0.6660384230641482,0.0279085523589026,Australia,AU,Victoria,,-0.0776710084086302,-0.075258615746496,-0.445196860294999,-0.7825144762218147,-0.7121672076465806,0
Korumburra,-1.0567769667910627,0.0684078260492059,Australia,AU,Victoria,,-0.0777024366855014,-0.0752930471789426,-0.5396408289762369,-1.0994164100895745,-1.1040800437563862,0
Rasmussen,2.1162860430246577,0.1634026012961824,Australia,AU,Queensland,,-0.0777535076354171,-0.0753489982566683,0.395626578979148,1.6572372003965323,2.4586712106882795,1
Tatura,-0.7242335253213484,0.0067504811012922,Australia,AU,Victoria,,-0.0777849359122883,-0.0753834296891148,-0.4512621125449273,-0.8056078366505975,-0.7943859148768466,0
Carnarvon,1.198881823870083,-3.3282495685150506,Australia,AU,Western Australia,,-0.0778713636736841,-0.0754781161283429,1.8463615552941997,5.199207645334373,-1.5899753959157148,3
Romsey,-0.8766548117189917,-0.0442697306681832,Australia,AU,Victoria,,-0.0779263631582087,-0.0755383711351244,-0.46820687329689564,-0.870078391750333,-1.0058669148600645,0
Blackheath,-0.2583069094781318,0.5410472371078808,Australia,AU,New South Wales,,-0.0779892197119511,-0.0756072340000175,-0.5144244225383305,-0.9425673566016933,0.18383037798260715,0
Bargo,-0.3692434015524276,0.5720290758490536,Australia,AU,New South Wales,,-0.0780010053157778,-0.075620145787185,-0.5471082700658934,-1.0497616726826822,0.0896463513728957,0
Old Bar,0.0184357425129649,0.7831450080280881,Australia,AU,New South Wales,,-0.0780167194542134,-0.0756373615034083,-0.5291292336594771,-0.9574529151867631,0.698863676399201,0
Narrandera,-0.4440656758831137,0.1459838995968297,Australia,AU,New South Wales,,-0.0780717189387379,-0.0756976165101898,-0.4347183095054436,-0.7269342479055046,-0.36582337077109495,0
Ingham,2.232626366022837,0.1053789939981005,Australia,AU,Queensland,,-0.0781424325616981,-0.0757750872331945,0.43691286364687076,1.7924788529044062,2.5350352763425414,1
Manjimup,-0.3597326591263947,-3.0657225865053683,Australia,AU,Western Australia,,-0.0781738608385693,-0.0758095186656411,1.4389392135627166,3.8459686167304428,-3.0647277040281447,3
George Town,-1.500173764474706,0.1740397344746204,Australia,AU,Tasmania,,-0.0781817179077871,-0.0758181265237527,-0.6655228842392442,-1.5114945077666835,-1.4964966561043809,0
Wyong,-0.200261451769592,0.6600838347124811,Australia,AU,New South Wales,,-0.078264217134574,-0.075908509033925,-0.5385090623888787,-1.005856357524228,0.35170315551802,0
Broadford,-0.8517140536087634,-0.0107844156973261,Australia,AU,Victoria,,-0.0782917168768363,-0.0759386365373157,-0.47365496775971744,-0.8815020502917308,-0.9492349826836531,0
Drysdale,-1.012448926043149,-0.063632059482562,Australia,AU,Victoria,,-0.0784645723996279,-0.0761280094157719,-0.4918514693448147,-0.9503184919973323,-1.1714140723390134,0
Narrogin,-0.142731436395332,-2.956752709773711,Australia,AU,Western Australia,,-0.0784685009342368,-0.0761323133448277,1.451291419467206,3.905953501442493,-2.7318027108436578,3
Cockatoo,-0.9739237683488832,0.0341091453834732,Australia,AU,Victoria,,-0.0785392145571969,-0.0762097840678325,-0.5132949189171568,-1.0089545579856312,-1.0435608959572782,0
Victor Harbor,-0.5773657143962482,-0.6921419146137768,Australia,AU,South Australia,,-0.0786295708532016,-0.0763087744361163,-0.21140465052648816,-0.08159928785502872,-1.2466551305253541,0
Oxford Park,0.7745896468988746,0.8298871275063335,Australia,AU,Queensland,,-0.0786374279224194,-0.076317382294228,-0.08874189520127658,0.10334353535837042,1.5754292846956053,1
Moama,-0.6660384230641482,-0.0442697306681832,Australia,AU,New South Wales,,-0.0787670695645131,-0.0764594119530701,-0.4253146667869202,-0.7180125304394166,-0.775510210888559,0
Bungendore,-0.5272015362505423,0.4523164340305323,Australia,AU,New South Wales,,-0.0788456402566911,-0.0765454905341865,-0.5457236117015377,-1.0570454262263602,-0.1881608163414532,0
Latrobe,-1.5245159443902891,0.1326214631810156,Australia,AU,Tasmania,,-0.0788809970681712,-0.0765842258956889,-0.6593530872293141,-1.4919496600623658,-1.5594757420070045,0
Curl Curl,-0.2805706928845287,0.6477354646175485,Australia,AU,New South Wales,,-0.0790852808678339,-0.0768080302065916,-0.5530688053687677,-1.0521972525487424,0.25298953396321516,0
Beachmere,0.8227419372236892,0.8328765105147728,Australia,AU,Queensland,,-0.0791049235408784,-0.0768295498518707,-0.08029893947164839,0.13564244265837522,1.630704569584394,1
Berri,-0.3667493257414045,-0.4826421506336539,Australia,AU,South Australia,,-0.0791402803523585,-0.0769328441492104,-0.23106752289770333,-0.1149191055356986,-0.8325653268200783,0
Wellington,-0.0785505521916767,0.3976202318478534,Australia,AU,New South Wales,,-0.0792424222521899,-0.0769801873688244,-0.43554383124079094,-0.6856552407121462,0.25463407592828324,0
Tenterfield,0.5025192302604281,0.7234418533860434,Australia,AU,New South Wales,,-0.0792856361328877,-0.0770275305884384,-0.11502620495997114,0.0021071976762051044,1.1844382896674102,1
Thirlmere,-0.3526162294789428,0.5702755861691936,Australia,AU,New South Wales,,-0.0793642068250657,-0.0771136091695549,-0.5453774024122942,-1.0353808913253464,0.10623920768799847,0
Legana,-1.5445184323946923,0.1986836587102712,Australia,AU,Tasmania,,-0.079430991913417,-0.0771867759635038,-0.6843731319405205,-1.564387906586731,-1.5234466732003666,0
Faulconbridge,-0.2676846345275772,0.5677509835578265,Australia,AU,New South Wales,,-0.0794467060518526,-0.0772039916797271,-0.5268892206514142,-0.9719916113040122,0.19692807272233864,0
The Entrance,-0.2111023679615054,0.6683231235696637,Australia,AU,New South Wales,,-0.0795213482094217,-0.0772857663317877,-0.5453861644443249,-1.0201387561601825,0.3470164223683943,0
Cobar,0.0960846360961429,0.0700134310572715,Australia,AU,New South Wales,,-0.0795842047631641,-0.0773546291966808,-0.300763926189791,-0.2701973061939011,0.1583585214408149,0
Wallaroo,-0.3057941129200062,-0.7977738230391913,Australia,AU,South Australia,,-0.0795920618323819,-0.0795453290860937,-0.12566341550812193,0.20836546685096308,-1.0422938914245599,0
Moruya,-0.6374064327536052,0.5188117203843315,Australia,AU,New South Wales,,-0.0796156330400353,-0.0773890606291274,-0.5902202979089111,-1.194623616795294,-0.2504333074692014,0
Gerringong,-0.4440656758831137,0.5984370529554073,Australia,AU,New South Wales,,-0.0796784895937777,-0.0774579234940205,-0.5736219836648888,-1.1258692378418111,0.030885830269024573,0
Sandstone Point,0.8320198992406944,0.8402179281503397,Australia,AU,Queensland,,-0.0797059893360399,-0.0774880509974113,-0.08156891129763903,0.13621071130319526,1.647266231648542,1
Tambourine,0.6976723488869299,0.8409256619367895,Australia,AU,Queensland,,-0.07974134614752,-0.0775267863589137,-0.11010423228975656,0.03894965509687768,1.5009231695426504,1
Margate,-1.82097842246054,0.2210459337239292,Australia,AU,Tasmania,,-0.079859202185787,-0.0776559042305883,-0.7499845647154514,-1.782785396986152,-1.8062727032567525,0
Trafalgar,-1.0179857743436205,0.1036149411273975,Australia,AU,Victoria,,-0.0798906304626582,-0.0776903356630349,-0.5457621057066627,-1.1012364123136824,-1.0308645674306975,0
Somerset,-1.4918601784379624,0.0701613157290691,Australia,AU,Tasmania,,-0.0799259872741383,-0.0777290710245373,-0.6354404936272756,-1.4125762652621028,-1.5785722892384157,0
Marian,1.817728541273148,0.3986554245504207,Australia,AU,Queensland,,-0.0799259872741383,-0.0777290710245373,0.2583451948133336,1.2358618166545567,2.3382925141316253,1
Weipa,3.23579353873245,-0.3488382122311798,Australia,AU,Queensland,,-0.0799417014125739,-0.0777462867407605,0.7816505112650988,2.9168828910344464,3.2339948864863484,1
Kerang,-0.6050832102427498,-0.132292799959082,Australia,AU,Victoria,,-0.0799652726202273,-0.0777721103150955,-0.38801159933403767,-0.5955841534731399,-0.7860739360667219,0
Westbrook,0.7444944654458652,0.7039527662815559,Australia,AU,Queensland,,-0.0799967008970985,-0.077806541747542,-0.05945211868059782,0.1938799036978129,1.4320129067478864,1
Smithton,-1.4576082039665827,-0.0051859245507794,Australia,AU,Tasmania,,-0.0800124150355341,-0.0778237574637653,-0.6056991315417041,-1.3212729995744972,-1.6071833895649883,0
Longford,-1.5826112836150474,0.2062891561169013,Australia,AU,Tasmania,,-0.0800831286584943,-0.0779012281867701,-0.6957739916139286,-1.5981020533295918,-1.558474322148403,0
Karana Downs,0.7528080514826082,0.807862874599636,Australia,AU,Queensland,,-0.0800870571931032,-0.0779055321158259,-0.08913462591400197,0.10806459901624217,1.532226908579071,1
Beechworth,-0.7119460451590421,0.1603287127610028,Australia,AU,Victoria,,-0.0800988427969299,-0.0779184439029934,-0.49880304415000326,-0.9310535490977522,-0.6463628940991492,0
Penguin,-1.5029505022109784,0.0952488939801032,Australia,AU,Tasmania,,-0.0801381281430188,-0.0779614831935516,-0.6456826302113231,-1.4425970793053473,-1.5687124726385522,0
Anna Bay,-0.1170757098859437,0.7304769384871753,Australia,AU,New South Wales,,-0.0801499137468455,-0.0779743949807191,-0.5453735996823278,-1.0070324152577015,0.5043507091318362,0
Loxton,-0.3951152812987712,-0.4861385668025341,Australia,AU,South Australia,,-0.0801813420237167,-0.0780088264131656,-0.23768856910925176,-0.13159106849351535,-0.8667040032029453,0
Pearcedale,-1.018484589505825,0.0065392172844404,Australia,AU,Victoria,,-0.080248127112068,-0.0780819932071146,-0.5172468324712711,-1.015554913213973,-1.11655562847413,0
Landsborough,0.8759987693750638,0.8235492130008084,Australia,AU,Queensland,,-0.0802834839235481,-0.078120728568617,-0.06827155452389573,0.1829543597694397,1.6807324581734189,1
Laidley,0.7392901605868645,0.7631594509539997,Australia,AU,Queensland,,-0.0802991980619837,-0.0781379442848403,-0.07887875404388352,0.13799088915498867,1.4782282233563813,1
Wonga Park,-0.9413345110848504,0.0103419659877554,Australia,AU,Victoria,,-0.0803463404772905,-0.0781895914335101,-0.5023267837148778,-0.9633473647559722,-1.0288308468313927,0
Peregian Beach,0.9305525209481704,0.8373341770503262,Australia,AU,Queensland,,-0.080365983150335,-0.0782111110787892,-0.061083528485343756,0.21007065388745438,1.752493753501194,1
Cooroy,0.9412604197634956,0.8178873427092074,Australia,AU,Queensland,,-0.080365983150335,-0.0782111110787892,-0.05297695839636526,0.23496513567290536,1.7471532385798694,1
Bellingen,0.2709027232767719,0.8167465180982141,Australia,AU,New South Wales,,-0.0804131255656418,-0.0782627582274591,-0.19373636412333572,-0.24629324187671717,1.0128493962336855,1
Riddell,-0.8960587215287498,-0.0513470685326867,Australia,AU,Victoria,,-0.0805152674654732,-0.0783746603829104,-0.47451665137284177,-0.8761338869219731,-1.0334090223703798,0
Suffolk Park,0.561878234562772,0.8924529068667059,Australia,AU,New South Wales,,-0.0805270530692999,-0.0783875721700779,-0.15550486284472453,-0.10379759151093966,1.3975319004254916,1
Buninyong,-0.9265862094556692,-0.1357575265554335,Australia,AU,Victoria,,-0.0806684803152202,-0.0785425136160874,-0.4557871651194082,-0.8233827730601481,-1.140832890446707,0
Weston,-0.1218310810989602,0.6641084104234879,Australia,AU,New South Wales,,-0.0807509795420071,-0.0786328961262597,-0.5274073812302408,-0.9514026931370414,0.44092166648343895,0
Katanning,-0.2682333312060028,-2.9168977907248017,Australia,AU,Western Australia,,-0.0807745507496605,-0.0786587197005946,1.409010232748572,3.7818973740564394,-2.834235857736883,3
Bellbrae,-1.0401497947175766,-0.0918040894596185,Australia,AU,Victoria,,-0.0807902648880961,-0.0908044074961215,-0.501821984130256,-0.9405833162745916,-1.2267165914332794,0
Sawtell,0.2847531576139857,0.8378728997832957,Australia,AU,New South Wales,,-0.080794193422705,-0.0786802393458737,-0.19782366542660335,-0.25476094554213324,1.046510877309411,1
Silverdale,-0.305511450994757,0.5746698735596896,Australia,AU,New South Wales,,-0.080794193422705,-0.0786802393458737,-0.5391979961290508,-1.004464595275912,0.16155982743655237,0
Tallebudgera,0.6532279179345022,0.87134765156331,Australia,AU,Queensland,,-0.0808531214418385,-0.078744798281711,-0.13048332986534483,-0.019210759249671826,1.4789369099537744,1
Bay View,-0.2629791448307805,0.6461509859911687,Australia,AU,New South Wales,,-0.0810377625684567,-0.0789470829473346,-0.5521779430297991,-1.0368967737367976,0.2707605371296252,0
Portarlington,-1.0041353400064066,-0.0548329215107241,Australia,AU,Victoria,,-0.0810416911030656,-0.0789513868763904,-0.4970896492595661,-0.950474249471844,-1.1547128056460279,0
Nanango,0.8996758624077078,0.7215616054160716,Australia,AU,Queensland,,-0.0811202617952436,-0.0790374654575069,-0.03399862526871671,0.29067671540041395,1.6171595301957313,1
Logan Village,0.7167769695993648,0.837756704684027,Australia,AU,Queensland,,-0.0811713327451593,-0.0790934165352325,-0.10753852158850956,0.05640663772342012,1.518981973884348,1
Glass House Mountains,0.8608846699602657,0.8183943758696481,Australia,AU,Queensland,,-0.0812106180912483,-0.0791364558257907,-0.07146014512765954,0.17722751898834913,1.6596393686098536,1
Sussex Inlet,-0.5067002330839344,0.5677192939852977,Australia,AU,New South Wales,,-0.0812145466258572,-0.0791407597548465,-0.5801375197339638,-1.1428004267334781,-0.06463283314717257,0
Proserpine,1.941368192811588,0.3604483632729499,Australia,AU,Queensland,,-0.0812656175757729,-0.0791967108325722,0.2936013711954967,1.3594431173996875,2.439979017733432,1
Merimbula,-0.8015498754630563,0.4998507928219706,Australia,AU,New South Wales,,-0.0813363311987331,-0.079274181555577,-0.6219402103510181,-1.294861773071759,-0.4466898195663472,0
Scarness,1.1296961608723088,0.8113487275776733,Australia,AU,Queensland,,-0.0814345445639555,-0.0793817797819725,-0.013166206843690569,0.376997954223102,1.9475029457407957,1
Port Douglas,2.5928706761669784,0.0312782102376741,Australia,AU,Queensland,,-0.081493472583089,-0.0794463387178098,0.5293624631241265,2.1192983462052486,2.8639804011974563,1
Gosford,-0.2237556459094275,0.6519924305270929,Australia,AU,New South Wales,,-0.0815131152561335,-0.0794678583630889,-0.5464851041513508,-1.0135379456612774,0.3187694285283168,0
Bridgewater,-0.4886431242121284,-0.6761598068690126,Australia,AU,South Australia,,-0.0815170437907424,-0.0794721622921448,-0.20241184617580285,-0.03005576544175314,-1.135708880959911,0
Lake Cathie,0.0880038304684288,0.8114649226769421,Australia,AU,New South Wales,,-0.081532757929178,-0.0794893780083681,-0.5289380735113499,-0.9301963816976573,0.7996498389759213,0
Condobolin,-0.1681045009794712,0.2091834704077576,Australia,AU,New South Wales,,-0.0815641862060492,-0.0795238094408146,-0.4015680384409252,-0.5820335671520627,-0.00867609526681397,0
Paynesville,-0.9708809958594348,0.2691084520574941,Australia,AU,Victoria,,-0.0815877574137026,-0.0795496330151496,-0.5885269803303836,-1.2125580169269583,-0.8342798276782926,0
Woodford,0.8541007837542833,0.8025707159875212,Australia,AU,Queensland,,-0.0816741851750984,-0.0796443194543776,-0.0689043663436968,0.18662973410491404,1.6383223349682152,1
Maddingley,-0.9325886185741972,-0.077691666493983,Australia,AU,Victoria,,-0.0816938278481429,-0.0796658390996567,-0.4762551434598525,-0.8783772022851051,-1.096521717962369,0
Hurstbridge,-0.9246907118392916,0.0027364685811253,Australia,AU,Victoria,,-0.0817056134519696,-0.0796787508868242,-0.49882421589518106,-0.9437840818355644,-1.0173515350176887,0
Quirindi,0.0946879536419705,0.5821274862945253,Australia,AU,New South Wales,,-0.081729184659623,-0.0797045744611591,-0.45882675637578374,-0.7225332817907166,0.6058365077529925,0
Maleny,0.8844952543046153,0.8114860490586279,Australia,AU,Queensland,,-0.0817409702634497,-0.0797174862483266,-0.06530641505806282,0.20065897962330465,1.6793861558523795,1
Calliope,1.3420584025948683,0.6369293203856301,Australia,AU,Queensland,,-0.0817527558672764,-0.079730398035494,0.08347710713163593,0.6841699122499291,2.0268350488403817,1
Corrimal,-0.3824121218346282,0.6066023994766927,Australia,AU,New South Wales,,-0.08188239750937,-0.0798724276943361,-0.56681995390931,-1.0873263297312028,0.10539548638661236,0
Walkerston,1.8151513296017576,0.4109087259277702,Australia,AU,Queensland,,-0.0818902545785878,-0.0798810355524478,0.25080781562895943,1.2244268650042924,2.3461354949811555,1
Blayney,-0.2420455351902617,0.4310738572461818,Australia,AU,New South Wales,,-0.0819884679438103,-0.0799886337788433,-0.4846314022342596,-0.8311071531198314,0.10500819737309763,0
Camperdown,-1.0235226226440908,-0.2132807841488458,Australia,AU,Victoria,,-0.0820238247552904,-0.0800273691403457,-0.45512505190030056,-0.8237329362975943,-1.3149124746448828,0
Aldgate,-0.488460225319321,-0.6795400279386269,Australia,AU,South Australia,,-0.0820552530321616,-0.0800618005727922,-0.20226187688629801,-0.026593394344411485,-1.1384959102155419,0
Port Fairy,-1.045703270190121,-0.3101135546024223,Australia,AU,Victoria,,-0.0821377522589485,-0.0801521830829645,-0.43083410149876183,-0.7540205666105723,-1.4240978109754672,0
Tyabb,-1.0277958058669767,0.0021026771305728,Australia,AU,Victoria,,-0.0821456093281663,-0.0801607909410761,-0.5210643938836901,-1.0171238179340327,-1.130712217095284,0
Lowood,0.766658485819822,0.7831766976006168,Australia,AU,Queensland,,-0.0821534663973841,-0.0801693987991878,-0.08226842851319359,0.1411674125185718,1.52564173072109,1
Charleville,0.9437544955745184,0.112942238641362,Australia,AU,Queensland,,-0.082157394931993,-0.0801737027282436,0.1567367165077638,0.8610556594272699,1.131606155517821,1
Derby,2.456162067378779,-2.2748036721700777,Australia,AU,Western Australia,,-0.082196680278082,-0.0802167420188018,1.786463418853181,5.1753053842318355,0.7089906207507073,3
Mooloolah,0.8837470315613084,0.8233168228022738,Australia,AU,Queensland,,-0.0822123944165175,-0.0802339577350251,-0.06981875830563143,0.18996274295767734,1.6889226426538535,1
Pittsworth,0.7250905556361077,0.6828263845964713,Australia,AU,Queensland,,-0.0823184648509578,-0.0803501638195322,-0.061083102336312166,0.2000733200465984,1.3921618654805177,1
Vincentia,-0.4985196644237795,0.5815148212256586,Australia,AU,New South Wales,,-0.0823341789893934,-0.0803673795357555,-0.5844541508396233,-1.1483967404366315,-0.043633688474241705,0
Coonabarabran,0.1351086089526139,0.4329541052161535,Australia,AU,New South Wales,,-0.0823341789893934,-0.0803673795357555,-0.4064372842221272,-0.5612010327793832,0.5192097077161786,0
Euroa,-0.7768917792780772,0.042031538515381,Australia,AU,Victoria,,-0.0823931070085269,-0.0804319384715929,-0.480717745296057,-0.871746501476578,-0.8212443914077452,0
Oberon,-0.2725397687730355,0.4962170551721358,Australia,AU,New South Wales,,-0.082467749166096,-0.0805137131236534,-0.5114629202766986,-0.9103264707552313,0.12875747803897872,0
Woombye,0.8996758624077078,0.8237076608634488,Australia,AU,Queensland,,-0.082507034512185,-0.0805567524142117,-0.06708145667487282,0.2012650726787138,1.7066773695889332,1
Nhulunbuy,3.307988719875526,-0.8859553401927275,Australia,AU,Northern Territory,,-0.0825306057198384,-0.0805825759885466,0.9541646450569945,3.445272485627986,2.841835926580403,1
Camden,-0.3286897288651965,0.5837964704476452,Australia,AU,New South Wales,,-0.0825698910659274,-0.0806256152791048,-0.549810579497723,-1.0280773808659773,0.14413343501116943,0
Murrumbateman,-0.4796810784645198,0.407422872949733,Australia,AU,New South Wales,,-0.0826131049466253,-0.0806729584987188,-0.5285549371269965,-0.9807721749742184,-0.17570744959689777,0
Fernvale,0.7694352235560942,0.7902223458925917,Australia,AU,Queensland,,-0.0826523902927142,-0.080715997789277,-0.08464508494376137,0.13725470455613575,1.5348366897516847,1
East Hills,-0.3124449817494004,0.61428183921922,Australia,AU,New South Wales,,-0.0826641758965409,-0.0807289095764445,-0.5557286825716402,-1.0432782278803725,0.1886335419671206,0
Bohle Plains,2.1222884521431857,0.1608568723031294,Australia,AU,Queensland,,-0.0826681044311498,-0.0807332135055003,0.38938230716383865,1.666935802636817,2.462796304742766,1
Junortoun,-0.7796685170143494,-0.0865224940383496,Australia,AU,Victoria,,-0.0826838185695854,-0.0807504292217236,-0.44309355744614115,-0.7599203077752679,-0.9370292320065268,0
Myrtleford,-0.7436374351311053,0.1635082332046082,Australia,AU,Victoria,,-0.0827152468464566,-0.0807848606541702,-0.5108315889875527,-0.9549987340411368,-0.6783526704764914,0
Crib Point,-1.0450880648234016,0.0034758919401037,Australia,AU,Victoria,,-0.0827545321925456,-0.0808278999447284,-0.5261406158368761,-1.0303910544297623,-1.1484497351377074,0
Marcoola,0.9135429239169944,0.8359609622407953,Australia,AU,Queensland,,-0.0827938175386346,-0.0808709392352866,-0.06833553799283466,0.2005928884887054,1.7325798185461894,1
Mullumbimby,0.586536330747751,0.8800094680541933,Australia,AU,New South Wales,,-0.0827977460732435,-0.0808752431643424,-0.15039429358008827,-0.0736112837077091,1.4134967431423306,1
Creswick,-0.8905052460562055,-0.1340568528297849,Australia,AU,Victoria,,-0.0828056031424613,-0.0808838510224541,-0.4523064106486518,-0.7975662788318844,-1.0999633228178005,0
Clare,-0.2919270514107195,-0.6939059674844829,Australia,AU,South Australia,,-0.0828448884885503,-0.0809268903130123,-0.15792191076136963,0.1280067678621763,-0.9361407730389351,0
Tura Beach,-0.793236289426314,0.5024915905326036,Australia,AU,New South Wales,,-0.0828527455577681,-0.0809354981711239,-0.6235389786147448,-1.290249180413972,-0.4353441012693177,0
Eden,-0.8292673713095569,0.4998507928219706,Australia,AU,New South Wales,,-0.0828802453000304,-0.0809656256745147,-0.63037020676221,-1.313820256037112,-0.47707535223801345,0
West Wyalong,-0.3057941129200062,0.2162924978447868,Australia,AU,New South Wales,,-0.0829195306461194,-0.0810086649650729,-0.43495545903171834,-0.6865171071878247,-0.15311741574831275,0
Gilgandra,0.0627804104329513,0.3694587650616367,Australia,AU,New South Wales,,-0.0829784586652529,-0.0810732239009102,-0.4036240355194117,-0.5566997020430546,0.3843808400835245,0
Yunderup,-0.0840874004921481,-3.102313479583932,Australia,AU,Western Australia,,-0.0830256010805597,-0.08112487104958,1.4997740245366182,4.079720108155925,-2.7954945889851475,3
Rochester,-0.7131598287204067,-0.0495513260894551,Australia,AU,Victoria,,-0.0830295296151686,-0.0811291749786358,-0.440813242225411,-0.744531344891342,-0.8318685790501754,0
McLaren Vale,-0.5224627922095987,-0.7001276868907391,Australia,AU,South Australia,,-0.0830963147035198,-0.0812023417725848,-0.20497019650757503,-0.03219495638466162,-1.1937896090771283,0
Miners Rest,-0.8992677657389315,-0.1491622157346193,Australia,AU,Victoria,,-0.0831002432381287,-0.0812066457016406,-0.4500987269605694,-0.7903301499903218,-1.1228077020347682,0
Robinvale,-0.4166308419618624,-0.2537694946483091,Australia,AU,Victoria,,-0.083127742980391,-0.0812367732050314,-0.31712326978694655,-0.35060329325049144,-0.6865894334649499,0
Wilton,-0.3595497602335861,0.5843563195623004,Australia,AU,New South Wales,,-0.0831591712572622,-0.0812712046374779,-0.5574631514035964,-1.0503996257667036,0.11084174376180095,0
Riverview,0.7444944654458652,0.8113487275776733,Australia,AU,Queensland,,-0.0831866709995245,-0.0813013321408687,-0.09715082879062072,0.10097578312318227,1.5260581539529932,1
Bogangar,0.6228334473841702,0.8862840034146641,Australia,AU,New South Wales,,-0.0832377419494402,-0.0813572832185944,-0.14538792908179443,-0.052763234780290456,1.4586857747816981,1
Shoalhaven Heads,-0.4609755098818489,0.5886449750443735,Australia,AU,New South Wales,,-0.0832416704840491,-0.0813615871476502,-0.5802299981241292,-1.1271101300514883,0.0036499761966715723,0
Saint George,0.6719501136892472,0.3602687890286268,Australia,AU,Queensland,,-0.083284884364747,-0.0814089303672642,0.02320808510854514,0.4475897552091279,1.0511249201709567,1
Little Hampton,-0.4942298540288196,-0.6674979903781292,Australia,AU,South Australia,,-0.0833005985031826,-0.0814261460834875,-0.2091970045628799,-0.04059624261418408,-1.1342998755820894,0
Clermont,1.5387744753962778,0.2608269104369399,Australia,AU,Queensland,,-0.0833516694530983,-0.0814820971612132,0.23538419391870155,1.159183781109002,1.9121322894479,1
Home Hill,2.0645090291878225,0.2371231101862795,Australia,AU,Queensland,,-0.0833673835915339,-0.0818134996985114,0.3528665618262979,1.5584783953784738,2.4664383235555074,1
Central Coast,-0.2232069492310032,0.6476192695182827,Australia,AU,New South Wales,,-0.0833713121261428,-0.0815036168064923,-0.548181375973565,-1.008094061573656,0.315455802742948,0
Kuranda,2.5369534964838456,0.0494152089143164,Australia,AU,Queensland,,-0.083442025749103,-0.0815810875294971,0.5088592553655517,2.0642762559402184,2.8186353765864647,1
Wilberforce,-0.2463852271014414,0.5991342235510171,Australia,AU,New South Wales,,-0.0834459542837119,-0.0815853914585529,-0.5385879409842621,-0.9818627473225368,0.24757921196691537,0
Tom Price,1.560240154543148,-2.89157782227523,Australia,AU,Western Australia,,-0.0834538113529297,-0.0815939993166645,1.7815348381769394,5.07673843513005,-0.8119859495619627,3
Urunga,0.262589137240029,0.8290737618114579,Australia,AU,New South Wales,,-0.0834734540259742,-0.0816155189619436,-0.20434789528932673,-0.26122266240946207,1.014435737262063,1
Dysart,1.5782640090708064,0.3360896451900483,Australia,AU,Queensland,,-0.0835088108374542,-0.081654254323446,0.22077127636883045,1.1211645368801815,2.0213244707685463,1
Two Rocks,0.0968661131835967,-3.1247074441701206,Australia,AU,Western Australia,,-0.0835127393720631,-0.0816585582525018,1.5437623399008025,4.230015250327862,-2.6172092960345257,3
Ballan,-0.918222741902706,-0.0970856848808904,Australia,AU,Victoria,,-0.0835323820451076,-0.0816800778977809,-0.47048999829497634,-0.8497267980129556,-1.097892449859156,0
Gloucester,0.0113359400375865,0.7173680186515815,Australia,AU,New South Wales,,-0.0835716673911966,-0.0817231171883391,-0.5201737391298704,-0.9008780798629908,0.6331787056701372,0
Bonny Hills,0.0824503549958846,0.8097008698062362,Australia,AU,New South Wales,,-0.0835873815296322,-0.0817403329045624,-0.5330341321253513,-0.9313240809734366,0.7919407911920809,0
Longreach,1.4358190259172543,-0.0971807535984735,Australia,AU,Queensland,,-0.0835913100642411,-0.0817446368336183,0.32109053435654067,1.4017344315754725,1.4855459226135461,1
Stirling,-0.4862820657776942,-0.6827089851913895,Australia,AU,South Australia,,-0.0836070242026767,-0.0817618525498415,-0.2034620081111384,-0.02123680134870947,-1.1389580542739002,0
Perth,-1.5788369155543658,0.2115073723931158,Australia,AU,Tasmania,,-0.0836109527372856,-0.0817661564788974,-0.7024895843775425,-1.5977527211427414,-1.5499190873262463,0
Bordertown,-0.7040315112520625,-0.4646635998196489,Australia,AU,South Australia,,-0.0836580951525924,-0.0818178036275672,-0.31499271020891806,-0.37061384489532634,-1.1859411965647724,0
Lewiston,-0.4201391752693674,-0.6948144018969415,Australia,AU,South Australia,,-0.0836816663602458,-0.0818436272019021,-0.1860291426703729,0.03709893710391628,-1.0772236033264533,0
Waroona,-0.1312088061484067,-3.0899862358706853,Australia,AU,Western Australia,,-0.0837327373101615,-0.0818995782796278,1.4849598822665009,4.035371369383461,-2.8362601471567204,3
Leschenault,-0.1941093981024025,-3.109179553631584,Australia,AU,Western Australia,,-0.0837405943793793,-0.0819081861377395,1.4774918589281054,4.007088242896342,-2.9218986861630625,3
Terranora,0.6371494425394417,0.8802735478252566,Australia,AU,New South Wales,,-0.0837641655870327,-0.0819340097120744,-0.14145317257527118,-0.03681507686265897,1.4690528028239094,1
Kapunda,-0.3759940334142636,-0.6604523420861543,Australia,AU,South Australia,,-0.0837995223985128,-0.0819727450735768,-0.18728448013913945,0.03855946741318224,-0.9988047224880193,0
Woori Yallock,-0.9478191081935102,0.0379118940867882,Australia,AU,Victoria,,-0.0838152365369484,-0.0819899607898001,-0.5178297385945974,-0.9901748955531712,-1.0118940880993166,0
Saint Georges Basin,-0.5075315916876091,0.5765184319571357,Australia,AU,New South Wales,,-0.0838152365369484,-0.0819899607898001,-0.5873392061101598,-1.149520613296104,-0.05793618179898467,0
Pomona,0.9502557198552508,0.8120247717915974,Australia,AU,Queensland,,-0.0838270221407751,-0.0820028725769675,-0.05514622217414677,0.24882336148683684,1.7517052000980955,1
Sorell,-1.7800256976435436,0.2528200117782949,Australia,AU,Tasmania,,-0.0838388077446018,-0.082015784364135,-0.7576333919491225,-1.7788747195745376,-1.7337793073543066,0
Tea Gardens,-0.0979877163455817,0.7383993316190832,Australia,AU,New South Wales,,-0.0839291640406064,-0.0821147747324189,-0.5501049329844055,-0.9978958283095467,0.532018208328161,0
Culburra,-0.4750587246280909,0.5899336843271613,Australia,AU,New South Wales,,-0.0839684493866954,-0.0821578140229771,-0.5848040949145755,-1.1379188268589115,-0.010656287759418445,0
Yarra Glen,-0.92635342904664,0.021422753181583,Australia,AU,Victoria,,-0.0839880920597399,-0.0821793336682562,-0.5086413712480394,-0.9600450547999577,-1.0028803050198047,0
Beaconsfield Upper,-0.9840663433137096,0.0259754884347164,Australia,AU,Victoria,,-0.0840195203366111,-0.0822137651007027,-0.522205848791272,-1.0055718005448315,-1.0620210399867693,0
Morisset,-0.1724940744068718,0.6688618463026332,Australia,AU,New South Wales,,-0.0840352344750467,-0.082230980816926,-0.5450250485146514,-0.989963226975935,0.3895308488865779,0
Merredin,0.0990276455531502,-2.8404519785973297,Australia,AU,Western Australia,,-0.084062734217309,-0.0822611083203168,1.4577237573626438,3.980645322619108,-2.365591208216117,3
Deloraine,-1.5722193010691186,0.1581949482108076,Australia,AU,Tasmania,,-0.0840705912865268,-0.0822697161784284,-0.6858229319477749,-1.5455719292970582,-1.589451762713262,0
Evans Head,0.4925928085325571,0.8730800148614872,Australia,AU,New South Wales,,-0.0840745198211357,-0.0822740201074842,-0.17022065601745057,-0.1342615168083693,1.3046014136696005,1
Rosewood,0.738957617145395,0.7831450080280881,Australia,AU,Queensland,,-0.0841255907710514,-0.0823299711852099,-0.09140624496931114,0.122521599425269,1.4952284343636162,1
Greta,-0.1013630322764991,0.6565346025893865,Australia,AU,New South Wales,,-0.084141304909487,-0.0823471869014332,-0.5265289552207969,-0.9278225989245973,0.4565259539561445,0
Wollongbar,0.5424743247530138,0.8695624723109213,Australia,AU,New South Wales,,-0.0841491619787048,-0.0823557947595448,-0.15879385108878974,-0.09521670251978033,1.3560787260973284,1
Donnybrook,-0.2498104245485797,-3.1002008414154245,Australia,AU,Western Australia,,-0.0841648761171404,-0.0823730104757681,1.4623569654073527,3.959346690040304,-2.9749739417047696,3
McCrae,-1.042876650937628,-0.0254566877776168,Australia,AU,Victoria,,-0.0841688046517493,-0.0823773144048239,-0.5193468404544791,-1.0023236467473744,-1.1714629971499442,0
Angle Vale,-0.4263909919689989,-0.6889412677884886,Australia,AU,South Australia,,-0.0841884473247938,-0.082398834050103,-0.18996541328681407,0.027732006913546055,-1.0789335069756985,0
Bridgetown,-0.3127110165025767,-3.0665993313453,Australia,AU,Western Australia,,-0.0842120185324472,-0.082424657624438,1.4389303508374551,3.8844191634054797,-3.0143158910160905,3
North Wonthaggi,-1.084494462637563,0.0455173914934183,Australia,AU,Victoria,,-0.0842355897401006,-0.0824504811987729,-0.5495792564670644,-1.0949630084455722,-1.1547508824167798,0
Heathcote,-0.8046092751245777,-0.0495513260894551,Australia,AU,Victoria,,-0.0842866606900163,-0.0825064322764986,-0.46216778273232595,-0.8095251720700691,-0.9319580547195944,0
Howlong,-0.6491452162374859,0.1547830375686676,Australia,AU,New South Wales,,-0.0843495172437586,-0.0825752951413917,-0.49107789388922707,-0.8782615621709459,-0.5827088867754809,0
Williamstown,-0.4313957707631176,-0.6634417250945938,Australia,AU,South Australia,,-0.0844359450051544,-0.0826699815806198,-0.19911086204160744,0.0017478599085182871,-1.0620569676137241,0
Harvey,-0.1666745641811512,-3.092806607825644,Australia,AU,Western Australia,,-0.0844555876781989,-0.0826915012258989,1.4771310712572499,4.012808577956739,-2.8775599622937125,3
Coonamble,0.190526973473542,0.3378853876332799,Australia,AU,New South Wales,,-0.0844555876781989,-0.0826915012258989,-0.36973224559097134,-0.43594009678871415,0.4963714325728879,0
Uralla,0.2378312780226085,0.6682808708062922,Australia,AU,New South Wales,,-0.0844830874204612,-0.0827216287292896,-0.16285349472164623,-0.13625481096073913,0.8463035861294445,1
Bundanoon,-0.4286522873709923,0.5419239819478109,Australia,AU,New South Wales,,-0.0845380869049858,-0.0827818837360711,-0.5615484649314265,-1.061728925244522,-0.002018601577304713,0
Cloncurry,1.89176933851638,-0.4932053414761947,Australia,AU,Queensland,,-0.0845773722510748,-0.0828249230266293,0.5345615678252341,2.0804779450652866,1.6369736858460961,1
Tolga,2.469896111511478,0.0327148041922594,Australia,AU,Queensland,,-0.0845813007856837,-0.0828292269556851,0.49786169116548135,2.031519310643204,2.730587904029079,1
Huonville,-1.8216268821714048,0.1969196058395652,Australia,AU,Tasmania,,-0.0845970149241193,-0.0828464426719084,-0.750834124641696,-1.7589076672317132,-1.8283405053160808,0
Merbein,-0.3473620431037205,-0.329475883416801,Australia,AU,Victoria,,-0.0846009434587282,-0.0828507466009643,-0.2822418093388104,-0.23290614588105854,-0.6772695526036328,0
Alexandra,-0.8503339983266631,0.0571369014202153,Australia,AU,Victoria,,-0.0846716570816884,-0.082928217323969,-0.5045506346008356,-0.9364871445384161,-0.8884325609230471,0
Waikerie,-0.3473620431037205,-0.5477853485596049,Australia,AU,South Australia,,-0.0847148709623863,-0.0829755605435831,-0.21671742655672022,-0.03985302964610253,-0.868720174092187,0
Point Lonsdale,-1.031836208680833,-0.060114516931996,Australia,AU,Victoria,,-0.0847148709623863,-0.0829755605435831,-0.507510711996757,-0.9633959938562446,-1.1898021383597455,0
Hill Top,-0.378255328816257,0.5622369979380198,Australia,AU,New South Wales,,-0.0847541563084752,-0.0830185998341413,-0.5574248536991405,-1.0432888732599723,0.0709146848715549,0
Stirling North,-0.0730137038912065,-0.7748939516742466,Australia,AU,South Australia,,-0.0847580848430841,-0.0830229037631971,-0.09071047275579754,0.3583164844849475,-0.7677757043023034,0
Hahndorf,-0.4909543011303429,-0.6719767832953654,Australia,AU,South Australia,,-0.0847698704469108,-0.0830358155503646,-0.20963310522939482,-0.03334478958484953,-1.1347067428754531,0
Berry,-0.449619151355658,0.5843563195623004,Australia,AU,New South Wales,,-0.0847816560507375,-0.083048727337532,-0.5791424123402764,-1.114167889805405,0.012246408603204171,0
Burnett Heads,1.2155921318039362,0.763814368786238,Australia,AU,Queensland,,-0.0848248699314354,-0.083096070557146,0.013505366502869591,0.4829751608009778,1.9996352779912747,1
Moore Park,1.2248867209930148,0.7467865051480603,Australia,AU,Queensland,,-0.0848484411390888,-0.083121894131481,0.020546771955084538,0.5047295161049562,1.9948690586514375,1
Burradoo,-0.4032958499589272,0.5534906759203935,Australia,AU,New South Wales,,-0.0848680838121333,-0.0831434137767601,-0.5602515833431171,-1.0535004757060298,0.03584807521586157,0
Mannum,-0.4717997989016882,-0.6194988511896217,Australia,AU,South Australia,,-0.0848720123467422,-0.0831477177058159,-0.2215725759353329,-0.06588809693432211,-1.0677376922726094,0
Wooroloo,0.0456544231972608,-3.04801867865327,Australia,AU,Western Australia,,-0.08487986941596,-0.0831563255639275,1.507602378174718,4.126249896802647,-2.6060355601245773,3
Crookwell,-0.395580842116829,0.4540804869012382,Australia,AU,New South Wales,,-0.0848837979505689,-0.0831606294929834,-0.5287302735483485,-0.960063484855726,-0.04289062568968875,0
Appin,-0.3540129119331147,0.5931554575341383,Australia,AU,New South Wales,,-0.0849152262274401,-0.0831950609254299,-0.5619032808419284,-1.053076013158893,0.12454037339149883,0
Cooloola Cove,1.0137715171759667,0.8266019751543051,Australia,AU,Queensland,,-0.0849152262274401,-0.0831950609254299,-0.04800435108527939,0.2823276417682461,1.833922134729053,1
Cooktown,2.7615367096804166,0.0087046714071612,Australia,AU,Queensland,,-0.0849230832966579,-0.0832036687835416,0.5658664983174094,2.2627856891610008,3.0285421940748853,1
Jindabyne,-0.7211907528318999,0.3642933647396336,Australia,AU,New South Wales,,-0.0849309403658757,-0.0832122766416532,-0.5702803530006707,-1.1149276493202054,-0.4778144362570037,0
Maclean,0.435777761557456,0.8484360906258366,Australia,AU,New South Wales,,-0.0849348689004846,-0.083216580570709,-0.17620280354578144,-0.1528052269479557,1.2208037767743527,1
Stratford,-0.9791945818961784,0.2021695116883085,Australia,AU,Victoria,,-0.0849780827811825,-0.0832639237903231,-0.5758330898181276,-1.157207797344033,-0.902219710457087,0
Lawson,-0.2727226676658428,0.5559518993867062,Australia,AU,New South Wales,,-0.0849898683850092,-0.0832768355774905,-0.5337287416886584,-0.9616561479942228,0.1808347143389458,0
Thursday Island,3.574622051245942,-0.311518458984482,Australia,AU,Queensland,,-0.0850055825234448,-0.0832940512937138,0.8331712861593595,3.130892108748376,3.6371505990823927,1
Woodside,-0.4781181242896122,-0.6649416981942333,Australia,AU,South Australia,,-0.0850134395926626,-0.0833026591518255,-0.20946050405003555,-0.030173392086411836,-1.114506239484679,0
Narooma,-0.6854423328739062,0.5243785219583496,Australia,AU,New South Wales,,-0.0850252251964893,-0.0833155709389929,-0.6111079766930884,-1.2306595887999612,-0.29832722422233166,0
Macksville,0.2261423760549481,0.8184471918238626,Australia,AU,New South Wales,,-0.0850527249387516,-0.0833456984423837,-0.21147494962623836,-0.27704535931176283,0.96518086250522,1
Molong,-0.1696840823264527,0.3894654485174109,Australia,AU,New South Wales,,-0.0851352241655385,-0.0834360809525559,-0.46218091014414553,-0.7402610320640254,0.14754225223036935,0
Grenfell,-0.3046302108748626,0.3196321938573688,Australia,AU,New South Wales,,-0.085150938303974,-0.0834532966687792,-0.4695746273859062,-0.7756086341241977,-0.06131545377178213,0
Yarrabah Aboriginal Community,2.5220389231339286,0.0740696963408071,Australia,AU,Queensland,,-0.0852059377884986,-0.0835135516755607,0.49533069924020495,2.0328750866387906,2.823866248956301,1
Denmark,-0.479265399162683,-2.9382565626084207,Australia,AU,Western Australia,,-0.0852098663231075,-0.0835178556046165,1.36357830689261,3.6517730073999246,-3.0840015543471866,3
Bonville,0.2817103851245378,0.832475109262758,Australia,AU,New South Wales,,-0.0852255804615431,-0.0835350713208398,-0.20429879580871158,-0.24935656971704642,1.0382608745949498,1
Walcha,0.1819473526836233,0.6793088420459052,Australia,AU,New South Wales,,-0.085229508996152,-0.0835393752498956,-0.1791860351127023,-0.18573430438487235,0.7948116862802844,1
Manilla,0.2210212070563147,0.5861203724330064,Australia,AU,New South Wales,,-0.0852412945999787,-0.0835522870370631,-0.14293401750043822,-0.0752381755321589,0.7558325763107243,1
Yarra Junction,-0.9479853799142456,0.0461511829439708,Australia,AU,Victoria,,-0.0852452231345876,-0.0835565909661189,-0.5227521989660666,-0.9966672150900482,-1.0049112050363707,0
Daylesford,-0.8766548117189917,-0.1076488757234313,Australia,AU,Victoria,,-0.0852491516691965,-0.0835608948951747,-0.4614556122879646,-0.8093893554970928,-1.0617576410398677,0
York,0.0314714454185774,-2.9999984130830746,Australia,AU,Western Australia,,-0.0852491516691965,-0.0836168459729004,1.4895016638790193,4.073847270312319,-2.5794556095306893,3
Anglesea,-1.0523042575032944,-0.1037510583025332,Australia,AU,Victoria,,-0.0852609372730232,-0.0835738066823422,-0.4996002405298097,-0.9392005258451128,-1.2504821354638218,0
Kambalda,0.1459162708003799,-2.482254177126749,Australia,AU,Western Australia,,-0.0852845084806766,-0.0835996302566771,1.3577052041468434,3.6985193112530945,-2.0002313428971967,3
Lobethal,-0.4692890959185912,-0.6657339375074233,Australia,AU,South Australia,,-0.0853316508959834,-0.083651277405347,-0.20790033787185763,-0.022918276176205225,-1.1055564516094243,0
The Oaks,-0.3332289468412576,0.5702755861691936,Australia,AU,New South Wales,,-0.0853395079652012,-0.0836598852634586,-0.5513578247363456,-1.017627266313683,0.1271934377671538,0
Gulgong,-0.0477902838557289,0.4611155720023702,Australia,AU,New South Wales,,-0.0853552221036368,-0.0836771009796819,-0.45847673907518416,-0.7157600483738471,0.3437053703981233,0
Finley,-0.5909501139802869,0.0421160440421211,Australia,AU,New South Wales,,-0.0853630791728546,-0.0836857088377935,-0.44662625579747,-0.7361518992859676,-0.6178954644846288,0
Capel,-0.2459861749716787,-3.126608818521778,Australia,AU,Western Australia,,-0.0854023645189436,-0.0837287481283517,1.4690276719234945,3.9862302005370163,-2.9940014894054587,3
Korora,0.3038245239822737,0.839404562455464,Australia,AU,New South Wales,,-0.0854848637457305,-0.083819130638524,-0.20216904129468793,-0.23940664816696197,1.0685172006619579,1
Exmouth,1.6867396796782272,-3.278919467280382,Australia,AU,Western Australia,,-0.0854927208149483,-0.0838277384966356,1.921313008206118,5.511449595013753,-1.0133731616072197,3
Boonah,0.678035658668143,0.7935603141988344,Australia,AU,Queensland,,-0.0855005778841661,-0.0838363463547473,-0.10967235146275643,0.07035930004499853,1.4376615172304903,1
Saint Leonards,-1.012448926043149,-0.0477872732187492,Australia,AU,Victoria,,-0.0855162920226017,-0.0838535620709705,-0.5084921114927333,-0.9598342186331263,-1.1578181274966914,0
Vasse,-0.2681003138294139,-3.15512943379664,Australia,AU,Western Australia,,-0.0855202205572106,-0.0838578660000264,1.4727624704213007,3.9956065427083454,-3.043208112115859,3
Aberdare,-0.1272349120228428,0.6561015117648429,Australia,AU,New South Wales,,-0.085543791764864,-0.0838836895743613,-0.53420223693898,-0.9451604531549126,0.42778553364044825,0
Bunyip,-0.9985818645338624,0.0578763247791937,Australia,AU,Victoria,,-0.0855634344379085,-0.0839052092196404,-0.5374614251831275,-1.0432315732832158,-1.0499896526896548,0
Dodges Ferry,-1.7917977354715722,0.2588304673677023,Australia,AU,Tasmania,,-0.0855673629725174,-0.0839095131486962,-0.7648290486730328,-1.7915565732568157,-1.7414591535552104,0
Palm Island,2.218576405620741,0.148973282605269,Australia,AU,Queensland,,-0.0856145053878241,-0.0839611602973661,0.40825565585591067,1.7485924808829905,2.5575790387855415,1
Cohuna,-0.6189336445799625,-0.1023672803021624,Australia,AU,Victoria,,-0.0857205758222644,-0.0840773663818732,-0.4096221767032476,-0.6283373749324666,-0.7752258816120211,0
Bright,-0.772734986259706,0.1894936826772582,Australia,AU,Victoria,,-0.0858070035836602,-0.0841720528211013,-0.5299797935814722,-0.9969349534603184,-0.6875256324497211,0
Hay,-0.4024977456993994,-0.0353543975970795,Australia,AU,New South Wales,,-0.0858070035836602,-0.0841720528211013,-0.3844083694117325,-0.5318027924957762,-0.4797045148224609,0
Launching Place,-0.9482514146674208,0.0421688599963326,Australia,AU,Victoria,,-0.085854145998967,-0.0842236999697711,-0.5226344661801454,-0.992950558308075,-1.0087203314289548,0
Tully,2.351793308273509,0.0807245065716099,Australia,AU,Queensland,,-0.0858698601374026,-0.0842409156859944,0.45639513994323494,1.90492994466523,2.643443058415113,1
Huntly,-0.7627420558435414,-0.0887407641152819,Australia,AU,Victoria,,-0.0859130740181005,-0.0842882589056085,-0.44430116880417797,-0.7437249969285948,-0.9205957186887794,0
Rutherglen,-0.6614326963997921,0.1366249125103396,Australia,AU,Victoria,,-0.0859170025527094,-0.0842925628346643,-0.4908355376434274,-0.8700523586699325,-0.6121403012868151,0
Murgon,0.9717380261741948,0.7162800099947997,Australia,AU,Queensland,,-0.0859170025527094,-0.0842925628346643,-0.02532391604899572,0.35024618787709055,1.6911528950517973,1
Scottsdale,-1.5112640882477202,0.2479820703724093,Australia,AU,Tasmania,,-0.0859366452257539,-0.0843140824799434,-0.7031690947422083,-1.5798983837741807,-1.4441137334986678,0
Baranduda,-0.6828983755466623,0.189314108432935,Australia,AU,Victoria,,-0.0859484308295805,-0.0843269942671108,-0.5112648493883656,-0.9320521257754456,-0.5894172259841102,0
Moore,0.1826789482548568,0.6021130433686136,Australia,AU,New South Wales,,-0.0859562878987983,-0.0843356021252225,-0.15701789121425885,-0.1165058022097455,0.7278845405841967,1
Goolwa,-0.5690521283595058,-0.6762971283499671,Australia,AU,South Australia,,-0.0860270015217585,-0.0844130728482273,-0.2268783361771003,-0.08491354864635324,-1.2239796525876399,0
Gembrook,-0.9764178441599064,0.0392851088963192,Australia,AU,Victoria,,-0.0860270015217585,-0.0844130728482273,-0.5279827638415785,-1.0105559844954963,-1.0420676952661367,0
Port Moonta,-0.3279581332939624,-0.8030237288879346,Australia,AU,South Australia,,-0.0860505727294119,-0.0844388964225622,-0.1380513390685106,0.2005828309978402,-1.0713814565829827,0
